var ind_plays = [{"Code": 14, "Name": "Janet Zepeda", "State": "ANDHRA PRADESH", "Type": "Gully Cricket", "Freq": "Leather", "Latitude": 17.247331, "Longitude": 81.646613}, {"Code": 25, "Name": "Alexandra Hess", "State": "ANDHRA PRADESH", "Type": "Cricket Ground", "Freq": "Leather", "Latitude": 16.492476, "Longitude": 80.640839}, {"Code": 26, "Name": "Justin Robinson", "State": "ANDHRA PRADESH", "Type": "Cricket Ground", "Freq": "Leather", "Latitude": 16.508853, "Longitude": 80.641519}, {"Code": 30, "Name": "Bruce Core", "State": "ANDHRA PRADESH", "Type": "Gully Cricket", "Freq": "Leather", "Latitude": 14.464393, "Longitude": 78.964627}, {"Code": 1174, "Name": "Bruce Troke", "State": "ANDHRA PRADESH", "Type": "Park", "Freq": "Leather", "Latitude": 15.8483, "Longitude": 78.034942}, {"Code": 1175, "Name": "Maryann Paviolitis", "State": "ANDHRA PRADESH", "Type": "Park", "Freq": "Leather", "Latitude": 16.001874, "Longitude": 78.364986}, {"Code": 1177, "Name": "Bernice Austin", "State": "ANDHRA PRADESH", "Type": "Gully Cricket", "Freq": "Leather", "Latitude": 16.670823, "Longitude": 80.297751}, {"Code": 1178, "Name": "Yvonne Griffin", "State": "ANDHRA PRADESH", "Type": "Cricket Ground", "Freq": "Leather", "Latitude": 16.951698, "Longitude": 80.048401}, {"Code": 1218, "Name": "Melissa Flaherty", "State": "ANDHRA PRADESH", "Type": "Park", "Freq": "Leather", "Latitude": 17.069466, "Longitude": 81.711134}, {"Code": 1219, "Name": "Tracy Kadis", "State": "ANDHRA PRADESH", "Type": "Cricket Ground", "Freq": "Leather", "Latitude": 17.007975, "Longitude": 81.763328}, {"Code": 1255, "Name": "Gloria Worrall", "State": "ANDHRA PRADESH", "Type": "Gully Cricket", "Freq": "Leather", "Latitude": 14.150574, "Longitude": 77.822711}, {"Code": 1256, "Name": "Gregg Hedger", "State": "ANDHRA PRADESH", "Type": "Nets", "Freq": "Leather", "Latitude": 14.572795, "Longitude": 78.79715}, {"Code": 1257, "Name": "Jack Long", "State": "ANDHRA PRADESH", "Type": "Cricket Ground", "Freq": "Leather", "Latitude": 14.481442, "Longitude": 79.290142}, {"Code": 1448, "Name": "John Walz", "State": "ANDHRA PRADESH", "Type": "Nets", "Freq": "Leather", "Latitude": 18.787433, "Longitude": 83.494512}, {"Code": 1513, "Name": "Antonia Harrington", "State": "ANDHRA PRADESH", "Type": "Gully Cricket", "Freq": "Leather", "Latitude": 16.501486, "Longitude": 80.675692}, {"Code": 1514, "Name": "Christy Leblanc", "State": "ANDHRA PRADESH", "Type": "Gully Cricket", "Freq": "Leather", "Latitude": 16.501508, "Longitude": 80.676725}, {"Code": 1516, "Name": "Dorothy Starks", "State": "ANDHRA PRADESH", "Type": "Cricket Ground", "Freq": "Leather", "Latitude": 14.445036, "Longitude": 79.987869}, {"Code": 1517, "Name": "Gerda Neal", "State": "ANDHRA PRADESH", "Type": "Cricket Ground", "Freq": "Leather", "Latitude": 15.8363, "Longitude": 78.048593}, {"Code": 1518, "Name": "Jerry Watts", "State": "ANDHRA PRADESH", "Type": "Gully Cricket", "Freq": "Leather", "Latitude": 15.479222, "Longitude": 78.480942}, {"Code": 1519, "Name": "Steve Osborne", "State": "ANDHRA PRADESH", "Type": "Park", "Freq": "Leather", "Latitude": 13.321417, "Longitude": 79.585592}, {"Code": 1520, "Name": "Bonnie Lively", "State": "ANDHRA PRADESH", "Type": "Cricket Ground", "Freq": "Leather", "Latitude": 13.758251, "Longitude": 79.701872}, {"Code": 1521, "Name": "Veronica Warden", "State": "ANDHRA PRADESH", "Type": "Cricket Ground", "Freq": "Leather", "Latitude": 17.704261, "Longitude": 83.211783}, {"Code": 1522, "Name": "Joseph Dooley", "State": "ANDHRA PRADESH", "Type": "Nets", "Freq": "Leather", "Latitude": 18.104532, "Longitude": 83.397197}, {"Code": 1523, "Name": "Thomas Landau", "State": "ANDHRA PRADESH", "Type": "Gully Cricket", "Freq": "Leather", "Latitude": 17.015144, "Longitude": 81.736181}, {"Code": 1524, "Name": "Edward Jacinto", "State": "ANDHRA PRADESH", "Type": "Gully Cricket", "Freq": "Leather", "Latitude": 16.971003, "Longitude": 82.219006}, {"Code": 1782, "Name": "Ryan Henderson", "State": "ANDHRA PRADESH", "Type": "Gully Cricket", "Freq": "Leather", "Latitude": 16.000123, "Longitude": 81.079082}, {"Code": 1785, "Name": "Edward Halsted", "State": "ANDHRA PRADESH", "Type": "Nets", "Freq": "Leather", "Latitude": 15.944453, "Longitude": 77.419709}, {"Code": 1786, "Name": "Pamela Ayala", "State": "ANDHRA PRADESH", "Type": "Cricket Ground", "Freq": "Leather", "Latitude": 16.801875, "Longitude": 80.129553}, {"Code": 1787, "Name": "Steven Amick", "State": "ANDHRA PRADESH", "Type": "Gully Cricket", "Freq": "Leather", "Latitude": 16.582608, "Longitude": 80.343451}, {"Code": 1790, "Name": "Robert Brenneman", "State": "ANDHRA PRADESH", "Type": "Park", "Freq": "Leather", "Latitude": 13.710482, "Longitude": 80.084494}, {"Code": 2350, "Name": "Daniel Laite", "State": "ANDHRA PRADESH", "Type": "Nets", "Freq": "Leather", "Latitude": 15.819061, "Longitude": 78.056866}, {"Code": 2351, "Name": "Julieta Hall", "State": "ANDHRA PRADESH", "Type": "Cricket Ground", "Freq": "Leather", "Latitude": 15.49, "Longitude": 78.4748}, {"Code": 2352, "Name": "Douglas Novak", "State": "ANDHRA PRADESH", "Type": "Cricket Ground", "Freq": "Leather", "Latitude": 18.343003, "Longitude": 84.124328}, {"Code": 2353, "Name": "Patricia Duncan", "State": "ANDHRA PRADESH", "Type": "Cricket Ground", "Freq": "Leather", "Latitude": 17.602201, "Longitude": 82.997395}, {"Code": 2354, "Name": "Anne Arthur", "State": "ANDHRA PRADESH", "Type": "Gully Cricket", "Freq": "Leather", "Latitude": 17.042624, "Longitude": 82.166873}, {"Code": 2355, "Name": "Ruth Brown", "State": "ANDHRA PRADESH", "Type": "Gully Cricket", "Freq": "Leather", "Latitude": 16.854914, "Longitude": 82.231328}, {"Code": 2370, "Name": "Mary Burke", "State": "ANDHRA PRADESH", "Type": "Park", "Freq": "Leather", "Latitude": 17.023186, "Longitude": 81.768181}, {"Code": 2371, "Name": "Christopher Horan", "State": "ANDHRA PRADESH", "Type": "Nets", "Freq": "Leather", "Latitude": 16.958989, "Longitude": 81.78175}, {"Code": 3051, "Name": "Dorothy Miller", "State": "ANDHRA PRADESH", "Type": "Nets", "Freq": "Leather", "Latitude": 16.518542, "Longitude": 80.77469}, {"Code": 3052, "Name": "Roger Lail", "State": "ANDHRA PRADESH", "Type": "Cricket Ground", "Freq": "Leather", "Latitude": 16.525092, "Longitude": 80.68445}, {"Code": 3053, "Name": "Bruce Cropsey", "State": "ANDHRA PRADESH", "Type": "Cricket Ground", "Freq": "Leather", "Latitude": 16.875379, "Longitude": 82.14765}, {"Code": 3067, "Name": "Mary Hubbard", "State": "ANDHRA PRADESH", "Type": "Park", "Freq": "Leather", "Latitude": 17.047062, "Longitude": 81.775012}, {"Code": 3079, "Name": "Gladys Young", "State": "ANDHRA PRADESH", "Type": "Gully Cricket", "Freq": "Leather", "Latitude": 16.398256, "Longitude": 80.721106}, {"Code": 3083, "Name": "Robert Gandee", "State": "ANDHRA PRADESH", "Type": "Park", "Freq": "Leather", "Latitude": 16.087917, "Longitude": 78.890169}, {"Code": 3087, "Name": "Michael Smith", "State": "ANDHRA PRADESH", "Type": "Cricket Ground", "Freq": "Leather", "Latitude": 16.57873, "Longitude": 80.665263}, {"Code": 3089, "Name": "Olga Law", "State": "ANDHRA PRADESH", "Type": "Gully Cricket", "Freq": "Leather", "Latitude": 17.647774, "Longitude": 83.07053}, {"Code": 3090, "Name": "Cristopher Lee", "State": "ANDHRA PRADESH", "Type": "Gully Cricket", "Freq": "Leather", "Latitude": 17.694566, "Longitude": 83.231092}, {"Code": 3091, "Name": "Chandra Dahl", "State": "ANDHRA PRADESH", "Type": "Gully Cricket", "Freq": "Leather", "Latitude": 17.845289, "Longitude": 83.368911}, {"Code": 3092, "Name": "Dorene Arndt", "State": "ANDHRA PRADESH", "Type": "Cricket Ground", "Freq": "Leather", "Latitude": 18.57652, "Longitude": 84.015135}, {"Code": 3093, "Name": "Billy Teter", "State": "ANDHRA PRADESH", "Type": "Cricket Ground", "Freq": "Leather", "Latitude": 18.135208, "Longitude": 83.61347}, {"Code": 4346, "Name": "Ethan Lande", "State": "ANDHRA PRADESH", "Type": "Nets", "Freq": "Leather", "Latitude": 18.272669, "Longitude": 83.899008}, {"Code": 4347, "Name": "Jim Ascolese", "State": "ANDHRA PRADESH", "Type": "Cricket Ground", "Freq": "Leather", "Latitude": 18.233593, "Longitude": 83.923037}, {"Code": 4348, "Name": "Kathy Noble", "State": "ANDHRA PRADESH", "Type": "Nets", "Freq": "Leather", "Latitude": 19.011611, "Longitude": 83.791031}, {"Code": 4349, "Name": "Amber Hartsfield", "State": "ANDHRA PRADESH", "Type": "Gully Cricket", "Freq": "Leather", "Latitude": 18.0783, "Longitude": 83.664886}, {"Code": 4350, "Name": "Jeffrey Bernstein", "State": "ANDHRA PRADESH", "Type": "Gully Cricket", "Freq": "Leather", "Latitude": 18.700542, "Longitude": 84.433441}, {"Code": 4351, "Name": "Steve Mcmullan", "State": "ANDHRA PRADESH", "Type": "Park", "Freq": "Leather", "Latitude": 18.963606, "Longitude": 83.444669}, {"Code": 4352, "Name": "Mark Weber", "State": "ANDHRA PRADESH", "Type": "Park", "Freq": "Leather", "Latitude": 18.031067, "Longitude": 83.602401}, {"Code": 4353, "Name": "Richard North", "State": "ANDHRA PRADESH", "Type": "Nets", "Freq": "Leather", "Latitude": 18.279708, "Longitude": 83.333591}, {"Code": 4354, "Name": "Louis Arakaki", "State": "ANDHRA PRADESH", "Type": "Nets", "Freq": "Leather", "Latitude": 17.808522, "Longitude": 83.190609}, {"Code": 4355, "Name": "Nellie Peck", "State": "ANDHRA PRADESH", "Type": "Cricket Ground", "Freq": "Leather", "Latitude": 17.933387, "Longitude": 83.456397}, {"Code": 4356, "Name": "Barbara Mckeever", "State": "ANDHRA PRADESH", "Type": "Gully Cricket", "Freq": "Leather", "Latitude": 16.720398, "Longitude": 81.108729}, {"Code": 4357, "Name": "Marjorie Patterson", "State": "ANDHRA PRADESH", "Type": "Nets", "Freq": "Leather", "Latitude": 17.782025, "Longitude": 83.385284}, {"Code": 4358, "Name": "Aurelia Perdue", "State": "ANDHRA PRADESH", "Type": "Park", "Freq": "Leather", "Latitude": 16.727818, "Longitude": 82.178451}, {"Code": 4359, "Name": "Carrie Ramsey", "State": "ANDHRA PRADESH", "Type": "Park", "Freq": "Leather", "Latitude": 17.559441, "Longitude": 81.273983}, {"Code": 4360, "Name": "David Daniel", "State": "ANDHRA PRADESH", "Type": "Nets", "Freq": "Leather", "Latitude": 16.986264, "Longitude": 82.234925}, {"Code": 4361, "Name": "Karen Alam", "State": "ANDHRA PRADESH", "Type": "Park", "Freq": "Leather", "Latitude": 17.076024, "Longitude": 82.335507}, {"Code": 4362, "Name": "Danielle Harris", "State": "ANDHRA PRADESH", "Type": "Nets", "Freq": "Leather", "Latitude": 16.970619, "Longitude": 82.280728}, {"Code": 4363, "Name": "Ellen Stinson", "State": "ANDHRA PRADESH", "Type": "Park", "Freq": "Leather", "Latitude": 16.957749, "Longitude": 82.269867}, {"Code": 4364, "Name": "Brittni Philip", "State": "ANDHRA PRADESH", "Type": "Park", "Freq": "Leather", "Latitude": 17.03405, "Longitude": 81.776891}, {"Code": 4365, "Name": "Shirley Whittle", "State": "ANDHRA PRADESH", "Type": "Park", "Freq": "Leather", "Latitude": 16.439522, "Longitude": 81.708766}, {"Code": 4366, "Name": "Billy Borst", "State": "ANDHRA PRADESH", "Type": "Cricket Ground", "Freq": "Leather", "Latitude": 16.40845, "Longitude": 81.699692}, {"Code": 4367, "Name": "Ronald Smith", "State": "ANDHRA PRADESH", "Type": "Nets", "Freq": "Leather", "Latitude": 17.643378, "Longitude": 80.915178}, {"Code": 4368, "Name": "Debbie Brown", "State": "ANDHRA PRADESH", "Type": "Cricket Ground", "Freq": "Leather", "Latitude": 16.654513, "Longitude": 81.218715}, {"Code": 4369, "Name": "Gregory Garcia", "State": "ANDHRA PRADESH", "Type": "Park", "Freq": "Leather", "Latitude": 16.730168, "Longitude": 81.677227}, {"Code": 4370, "Name": "Johnnie Towers", "State": "ANDHRA PRADESH", "Type": "Nets", "Freq": "Leather", "Latitude": 16.752674, "Longitude": 81.02373}, {"Code": 4371, "Name": "Ernestine Kleinknecht", "State": "ANDHRA PRADESH", "Type": "Park", "Freq": "Leather", "Latitude": 16.319709, "Longitude": 81.70582}, {"Code": 4372, "Name": "Alphonso Carrillo", "State": "ANDHRA PRADESH", "Type": "Nets", "Freq": "Leather", "Latitude": 16.582868, "Longitude": 81.575972}, {"Code": 4373, "Name": "Linda Sweeney", "State": "ANDHRA PRADESH", "Type": "Gully Cricket", "Freq": "Leather", "Latitude": 16.580812, "Longitude": 81.572122}, {"Code": 4374, "Name": "Steve King", "State": "ANDHRA PRADESH", "Type": "Gully Cricket", "Freq": "Leather", "Latitude": 16.709955, "Longitude": 81.547483}, {"Code": 4375, "Name": "Glendora Pegoda", "State": "ANDHRA PRADESH", "Type": "Gully Cricket", "Freq": "Leather", "Latitude": 16.576519, "Longitude": 80.520694}, {"Code": 4376, "Name": "Joshua Rasmusson", "State": "ANDHRA PRADESH", "Type": "Gully Cricket", "Freq": "Leather", "Latitude": 16.62096, "Longitude": 80.541348}, {"Code": 4377, "Name": "Lawrence Pena", "State": "ANDHRA PRADESH", "Type": "Nets", "Freq": "Leather", "Latitude": 16.209873, "Longitude": 81.158475}, {"Code": 4378, "Name": "Michael Lively", "State": "ANDHRA PRADESH", "Type": "Nets", "Freq": "Leather", "Latitude": 16.242517, "Longitude": 81.241292}, {"Code": 4379, "Name": "Arthur Johnson", "State": "ANDHRA PRADESH", "Type": "Cricket Ground", "Freq": "Leather", "Latitude": 16.39147, "Longitude": 81.478945}, {"Code": 4380, "Name": "Enrique Hiott", "State": "ANDHRA PRADESH", "Type": "Nets", "Freq": "Leather", "Latitude": 16.512728, "Longitude": 80.55287}, {"Code": 4381, "Name": "Ruth Thivierge", "State": "ANDHRA PRADESH", "Type": "Cricket Ground", "Freq": "Leather", "Latitude": 16.721665, "Longitude": 79.752249}, {"Code": 4382, "Name": "Yesenia Kelly", "State": "ANDHRA PRADESH", "Type": "Gully Cricket", "Freq": "Leather", "Latitude": 16.328558, "Longitude": 80.483568}, {"Code": 4383, "Name": "Raymond Sheffield", "State": "ANDHRA PRADESH", "Type": "Cricket Ground", "Freq": "Leather", "Latitude": 15.877884, "Longitude": 80.652347}, {"Code": 4384, "Name": "Robert Moore", "State": "ANDHRA PRADESH", "Type": "Park", "Freq": "Leather", "Latitude": 15.467752, "Longitude": 80.017805}, {"Code": 4385, "Name": "Maria Chang", "State": "ANDHRA PRADESH", "Type": "Gully Cricket", "Freq": "Leather", "Latitude": 15.419125, "Longitude": 80.168512}, {"Code": 4386, "Name": "Deborah Reel", "State": "ANDHRA PRADESH", "Type": "Cricket Ground", "Freq": "Leather", "Latitude": 15.780704, "Longitude": 80.411638}, {"Code": 4387, "Name": "Karen Seumanu", "State": "ANDHRA PRADESH", "Type": "Nets", "Freq": "Leather", "Latitude": 14.252922, "Longitude": 80.110153}, {"Code": 4388, "Name": "Katrina Smith", "State": "ANDHRA PRADESH", "Type": "Cricket Ground", "Freq": "Leather", "Latitude": 15.825765, "Longitude": 78.064604}, {"Code": 4389, "Name": "Patricia Allamong", "State": "ANDHRA PRADESH", "Type": "Gully Cricket", "Freq": "Leather", "Latitude": 15.836215, "Longitude": 78.057836}, {"Code": 4390, "Name": "Kevin Moistner", "State": "ANDHRA PRADESH", "Type": "Nets", "Freq": "Leather", "Latitude": 13.719691, "Longitude": 79.343511}, {"Code": 4391, "Name": "Valentina Longtin", "State": "ANDHRA PRADESH", "Type": "Cricket Ground", "Freq": "Leather", "Latitude": 13.556539, "Longitude": 80.005755}, {"Code": 4392, "Name": "Jose Clark", "State": "ANDHRA PRADESH", "Type": "Park", "Freq": "Leather", "Latitude": 13.630074, "Longitude": 79.416241}, {"Code": 4393, "Name": "Mary Laura", "State": "ANDHRA PRADESH", "Type": "Gully Cricket", "Freq": "Leather", "Latitude": 14.447187, "Longitude": 78.808212}, {"Code": 4394, "Name": "Erin Brown", "State": "ANDHRA PRADESH", "Type": "Nets", "Freq": "Leather", "Latitude": 13.725328, "Longitude": 77.512282}, {"Code": 4395, "Name": "Maria Webb", "State": "ANDHRA PRADESH", "Type": "Gully Cricket", "Freq": "Leather", "Latitude": 14.690736, "Longitude": 77.572373}, {"Code": 20004, "Name": "Keith Mcculler", "State": "ANDHRA PRADESH", "Type": "Cricket Ground", "Freq": "Leather", "Latitude": 16.991222, "Longitude": 81.790125}, {"Code": 3095, "Name": "Pauline Fowler", "State": "ARUNACHAL PRADESH", "Type": "Gully Cricket", "Freq": "Leather", "Latitude": 27.074892, "Longitude": 93.611622}, {"Code": 3096, "Name": "Renata Rucker", "State": "ARUNACHAL PRADESH", "Type": "Cricket Ground", "Freq": "Leather", "Latitude": 27.137292, "Longitude": 93.750572}, {"Code": 3097, "Name": "Elizabeth Faustini", "State": "ARUNACHAL PRADESH", "Type": "Park", "Freq": "Leather", "Latitude": 27.529796, "Longitude": 94.264206}, {"Code": 3098, "Name": "Alberto Mobley", "State": "ARUNACHAL PRADESH", "Type": "Nets", "Freq": "Leather", "Latitude": 28.11784, "Longitude": 95.283974}, {"Code": 3099, "Name": "Rosie Sparks", "State": "ARUNACHAL PRADESH", "Type": "Nets", "Freq": "Leather", "Latitude": 27.853501, "Longitude": 96.038366}, {"Code": 3100, "Name": "Pamela Trujillo", "State": "ARUNACHAL PRADESH", "Type": "Gully Cricket", "Freq": "Leather", "Latitude": 27.414903, "Longitude": 95.999133}, {"Code": 3101, "Name": "Robert Johnson", "State": "ARUNACHAL PRADESH", "Type": "Cricket Ground", "Freq": "Leather", "Latitude": 27.032578, "Longitude": 92.613561}, {"Code": 3102, "Name": "Maricela Hodge", "State": "ARUNACHAL PRADESH", "Type": "Gully Cricket", "Freq": "Leather", "Latitude": 27.123122, "Longitude": 93.762458}, {"Code": 3103, "Name": "Barbara Sturtevant", "State": "ARUNACHAL PRADESH", "Type": "Gully Cricket", "Freq": "Leather", "Latitude": 27.099005, "Longitude": 93.695348}, {"Code": 3104, "Name": "Perry Minardi", "State": "ARUNACHAL PRADESH", "Type": "Cricket Ground", "Freq": "Leather", "Latitude": 27.05878, "Longitude": 93.540723}, {"Code": 3105, "Name": "James Koch", "State": "ARUNACHAL PRADESH", "Type": "Cricket Ground", "Freq": "Leather", "Latitude": 27.596463, "Longitude": 94.776723}, {"Code": 3106, "Name": "Kathy Chatfield", "State": "ARUNACHAL PRADESH", "Type": "Cricket Ground", "Freq": "Leather", "Latitude": 28.171662, "Longitude": 95.832182}, {"Code": 3107, "Name": "Eric Addesso", "State": "ARUNACHAL PRADESH", "Type": "Gully Cricket", "Freq": "Leather", "Latitude": 27.495543, "Longitude": 96.215343}, {"Code": 3108, "Name": "Raymond Salazar", "State": "ARUNACHAL PRADESH", "Type": "Gully Cricket", "Freq": "Leather", "Latitude": 27.805825, "Longitude": 96.017611}, {"Code": 3109, "Name": "Oscar Harper", "State": "ARUNACHAL PRADESH", "Type": "Nets", "Freq": "Leather", "Latitude": 27.63316, "Longitude": 95.85058}, {"Code": 3110, "Name": "Ellen Khalaf", "State": "ARUNACHAL PRADESH", "Type": "Park", "Freq": "Leather", "Latitude": 28.180397, "Longitude": 94.801041}, {"Code": 3111, "Name": "Karen Viveiros", "State": "ARUNACHAL PRADESH", "Type": "Nets", "Freq": "Leather", "Latitude": 27.342757, "Longitude": 93.816402}, {"Code": 3112, "Name": "Lee Mceachern", "State": "ARUNACHAL PRADESH", "Type": "Cricket Ground", "Freq": "Leather", "Latitude": 27.733728, "Longitude": 93.991764}, {"Code": 3698, "Name": "Jack Watson", "State": "ARUNACHAL PRADESH", "Type": "Park", "Freq": "Leather", "Latitude": 27.120847, "Longitude": 93.752603}, {"Code": 3699, "Name": "James Marcinkiewicz", "State": "ARUNACHAL PRADESH", "Type": "Nets", "Freq": "Leather", "Latitude": 27.115748, "Longitude": 93.70554}, {"Code": 3700, "Name": "Johnny Hays", "State": "ARUNACHAL PRADESH", "Type": "Nets", "Freq": "Leather", "Latitude": 27.059801, "Longitude": 93.543031}, {"Code": 3701, "Name": "Christine Rice", "State": "ARUNACHAL PRADESH", "Type": "Park", "Freq": "Leather", "Latitude": 27.6583, "Longitude": 94.704649}, {"Code": 3702, "Name": "Kristin Ainsley", "State": "ARUNACHAL PRADESH", "Type": "Nets", "Freq": "Leather", "Latitude": 28.156623, "Longitude": 95.191109}, {"Code": 3703, "Name": "Eric Hamilton", "State": "ARUNACHAL PRADESH", "Type": "Park", "Freq": "Leather", "Latitude": 27.487603, "Longitude": 96.210504}, {"Code": 3704, "Name": "Mary Brown", "State": "ARUNACHAL PRADESH", "Type": "Park", "Freq": "Leather", "Latitude": 27.810441, "Longitude": 96.012801}, {"Code": 3705, "Name": "Charles Burton", "State": "ARUNACHAL PRADESH", "Type": "Nets", "Freq": "Leather", "Latitude": 27.240399, "Longitude": 96.948879}, {"Code": 3706, "Name": "Christine Epperson", "State": "ARUNACHAL PRADESH", "Type": "Nets", "Freq": "Leather", "Latitude": 28.16627, "Longitude": 94.79638}, {"Code": 3707, "Name": "Madeline Wilson", "State": "ARUNACHAL PRADESH", "Type": "Park", "Freq": "Leather", "Latitude": 27.534911, "Longitude": 93.752022}, {"Code": 3708, "Name": "Benjamin Pate", "State": "ARUNACHAL PRADESH", "Type": "Nets", "Freq": "Leather", "Latitude": 27.77836, "Longitude": 94.269098}, {"Code": 1030, "Name": "Steven Billiot", "State": "ASSAM", "Type": "Gully Cricket", "Freq": "Leather", "Latitude": 27.510417, "Longitude": 94.953333}, {"Code": 1031, "Name": "Coleen Kennedy", "State": "ASSAM", "Type": "Cricket Ground", "Freq": "Leather", "Latitude": 26.176, "Longitude": 91.68375}, {"Code": 1258, "Name": "Petra Anderson", "State": "ASSAM", "Type": "Park", "Freq": "Leather", "Latitude": 26.846906, "Longitude": 94.492244}, {"Code": 1259, "Name": "Brent Dullea", "State": "ASSAM", "Type": "Nets", "Freq": "Leather", "Latitude": 26.503075, "Longitude": 93.952372}, {"Code": 1260, "Name": "Morgan Perdue", "State": "ASSAM", "Type": "Cricket Ground", "Freq": "Leather", "Latitude": 27.687681, "Longitude": 95.297822}, {"Code": 1261, "Name": "Michael Sawyer", "State": "ASSAM", "Type": "Park", "Freq": "Leather", "Latitude": 27.510417, "Longitude": 94.953333}, {"Code": 1262, "Name": "Joe Arrington", "State": "ASSAM", "Type": "Gully Cricket", "Freq": "Leather", "Latitude": 26.830744, "Longitude": 94.172775}, {"Code": 1263, "Name": "Vickie Kozma", "State": "ASSAM", "Type": "Nets", "Freq": "Leather", "Latitude": 26.132906, "Longitude": 92.206483}, {"Code": 1298, "Name": "Cassandra Carty", "State": "ASSAM", "Type": "Cricket Ground", "Freq": "Leather", "Latitude": 27.311023, "Longitude": 95.101786}, {"Code": 1299, "Name": "Adolfo Carman", "State": "ASSAM", "Type": "Gully Cricket", "Freq": "Leather", "Latitude": 26.214866, "Longitude": 90.557934}, {"Code": 1422, "Name": "Elizabeth Ratcliffe", "State": "ASSAM", "Type": "Gully Cricket", "Freq": "Leather", "Latitude": 27.284622, "Longitude": 95.662347}, {"Code": 1423, "Name": "Russell Goff", "State": "ASSAM", "Type": "Nets", "Freq": "Leather", "Latitude": 24.8674, "Longitude": 92.600817}, {"Code": 1526, "Name": "Devon Loving", "State": "ASSAM", "Type": "Gully Cricket", "Freq": "Leather", "Latitude": 26.616375, "Longitude": 92.82735}, {"Code": 1527, "Name": "Crystal Corley", "State": "ASSAM", "Type": "Park", "Freq": "Leather", "Latitude": 26.781058, "Longitude": 94.208548}, {"Code": 1528, "Name": "Douglas Price", "State": "ASSAM", "Type": "Park", "Freq": "Leather", "Latitude": 26.167661, "Longitude": 91.765289}, {"Code": 1529, "Name": "Elsa Burdette", "State": "ASSAM", "Type": "Nets", "Freq": "Leather", "Latitude": 26.119297, "Longitude": 91.647713}, {"Code": 1530, "Name": "Thomas Chang", "State": "ASSAM", "Type": "Cricket Ground", "Freq": "Leather", "Latitude": 27.381964, "Longitude": 95.622819}, {"Code": 1531, "Name": "Bruce Diamond", "State": "ASSAM", "Type": "Park", "Freq": "Leather", "Latitude": 26.848745, "Longitude": 92.840375}, {"Code": 1532, "Name": "Daniel Joubert", "State": "ASSAM", "Type": "Cricket Ground", "Freq": "Leather", "Latitude": 26.953467, "Longitude": 94.624919}, {"Code": 1533, "Name": "Gregory Bean", "State": "ASSAM", "Type": "Nets", "Freq": "Leather", "Latitude": 27.396089, "Longitude": 95.631783}, {"Code": 1534, "Name": "Patricia Brown", "State": "ASSAM", "Type": "Nets", "Freq": "Leather", "Latitude": 26.105415, "Longitude": 93.113917}, {"Code": 1535, "Name": "Phyllis Wolfe", "State": "ASSAM", "Type": "Nets", "Freq": "Leather", "Latitude": 26.98, "Longitude": 94.63}, {"Code": 1536, "Name": "Brandon Stayton", "State": "ASSAM", "Type": "Cricket Ground", "Freq": "Leather", "Latitude": 26.979722, "Longitude": 94.632211}, {"Code": 1537, "Name": "Romeo Smart", "State": "ASSAM", "Type": "Park", "Freq": "Leather", "Latitude": 26.750143, "Longitude": 94.219855}, {"Code": 1538, "Name": "Amy Spruill", "State": "ASSAM", "Type": "Park", "Freq": "Leather", "Latitude": 24.820617, "Longitude": 92.802431}, {"Code": 1539, "Name": "Homer Leesman", "State": "ASSAM", "Type": "Cricket Ground", "Freq": "Leather", "Latitude": 26.315597, "Longitude": 90.996408}, {"Code": 1540, "Name": "Sharon James", "State": "ASSAM", "Type": "Gully Cricket", "Freq": "Leather", "Latitude": 26.48, "Longitude": 90.56}, {"Code": 1541, "Name": "Michelle Ward", "State": "ASSAM", "Type": "Cricket Ground", "Freq": "Leather", "Latitude": 26.145228, "Longitude": 91.736806}, {"Code": 1542, "Name": "Eric Thomas", "State": "ASSAM", "Type": "Cricket Ground", "Freq": "Leather", "Latitude": 26.1441, "Longitude": 91.735194}, {"Code": 2058, "Name": "Thomas Parilla", "State": "ASSAM", "Type": "Gully Cricket", "Freq": "Leather", "Latitude": 27.141901, "Longitude": 95.36639}, {"Code": 2059, "Name": "Willa Kinsey", "State": "ASSAM", "Type": "Cricket Ground", "Freq": "Leather", "Latitude": 26.265026, "Longitude": 92.264751}, {"Code": 2060, "Name": "Wilbert Robinson", "State": "ASSAM", "Type": "Gully Cricket", "Freq": "Leather", "Latitude": 26.496268, "Longitude": 90.652663}, {"Code": 2061, "Name": "Kenneth Phillips", "State": "ASSAM", "Type": "Gully Cricket", "Freq": "Leather", "Latitude": 27.411803, "Longitude": 95.985028}, {"Code": 2062, "Name": "Young Anteby", "State": "ASSAM", "Type": "Park", "Freq": "Leather", "Latitude": 27.321156, "Longitude": 95.309064}, {"Code": 2063, "Name": "Mary Barba", "State": "ASSAM", "Type": "Cricket Ground", "Freq": "Leather", "Latitude": 26.759281, "Longitude": 92.858803}, {"Code": 2064, "Name": "George Carroll", "State": "ASSAM", "Type": "Gully Cricket", "Freq": "Leather", "Latitude": 26.24776, "Longitude": 91.918205}, {"Code": 2065, "Name": "Cynthia Sellers", "State": "ASSAM", "Type": "Cricket Ground", "Freq": "Leather", "Latitude": 26.447389, "Longitude": 91.460667}, {"Code": 2066, "Name": "Shaunte Merritt", "State": "ASSAM", "Type": "Nets", "Freq": "Leather", "Latitude": 26.015519, "Longitude": 89.993294}, {"Code": 2067, "Name": "Marion Tate", "State": "ASSAM", "Type": "Nets", "Freq": "Leather", "Latitude": 26.160268, "Longitude": 91.56994}, {"Code": 2068, "Name": "Robert Cooper", "State": "ASSAM", "Type": "Cricket Ground", "Freq": "Leather", "Latitude": 24.648536, "Longitude": 92.608089}, {"Code": 2069, "Name": "Victoria Austerberry", "State": "ASSAM", "Type": "Nets", "Freq": "Leather", "Latitude": 26.190372, "Longitude": 91.745589}, {"Code": 2205, "Name": "Ricky Hamilton", "State": "ASSAM", "Type": "Gully Cricket", "Freq": "Leather", "Latitude": 27.316822, "Longitude": 95.212211}, {"Code": 2206, "Name": "Laura Plotts", "State": "ASSAM", "Type": "Cricket Ground", "Freq": "Leather", "Latitude": 26.279311, "Longitude": 90.539673}, {"Code": 2207, "Name": "Margaret Akin", "State": "ASSAM", "Type": "Nets", "Freq": "Leather", "Latitude": 27.398149, "Longitude": 94.988085}, {"Code": 2208, "Name": "Donna Rhoads", "State": "ASSAM", "Type": "Gully Cricket", "Freq": "Leather", "Latitude": 26.98035, "Longitude": 94.634636}, {"Code": 2209, "Name": "Teresa Merrow", "State": "ASSAM", "Type": "Park", "Freq": "Leather", "Latitude": 26.943433, "Longitude": 94.539514}, {"Code": 2210, "Name": "Evelyn Brown", "State": "ASSAM", "Type": "Nets", "Freq": "Leather", "Latitude": 26.755125, "Longitude": 94.209599}, {"Code": 2211, "Name": "Sophia Howes", "State": "ASSAM", "Type": "Cricket Ground", "Freq": "Leather", "Latitude": 26.622356, "Longitude": 92.792886}, {"Code": 2212, "Name": "James Moores", "State": "ASSAM", "Type": "Park", "Freq": "Leather", "Latitude": 26.883105, "Longitude": 93.615453}, {"Code": 2213, "Name": "Michael Mcdonald", "State": "ASSAM", "Type": "Gully Cricket", "Freq": "Leather", "Latitude": 26.42838, "Longitude": 91.889031}, {"Code": 2214, "Name": "Leola Adams", "State": "ASSAM", "Type": "Nets", "Freq": "Leather", "Latitude": 26.331139, "Longitude": 92.68575}, {"Code": 2215, "Name": "Harold Knott", "State": "ASSAM", "Type": "Park", "Freq": "Leather", "Latitude": 26.233911, "Longitude": 92.300531}, {"Code": 2216, "Name": "David Browne", "State": "ASSAM", "Type": "Gully Cricket", "Freq": "Leather", "Latitude": 26.187326, "Longitude": 91.751182}, {"Code": 2217, "Name": "Valerie Aburto", "State": "ASSAM", "Type": "Cricket Ground", "Freq": "Leather", "Latitude": 26.166621, "Longitude": 91.705616}, {"Code": 2218, "Name": "Jane Williams", "State": "ASSAM", "Type": "Park", "Freq": "Leather", "Latitude": 26.108294, "Longitude": 91.674043}, {"Code": 2219, "Name": "Rita Wright", "State": "ASSAM", "Type": "Gully Cricket", "Freq": "Leather", "Latitude": 26.244314, "Longitude": 91.525994}, {"Code": 2220, "Name": "Sue Revering", "State": "ASSAM", "Type": "Cricket Ground", "Freq": "Leather", "Latitude": 25.876033, "Longitude": 91.418567}, {"Code": 2221, "Name": "Johanna Dyal", "State": "ASSAM", "Type": "Park", "Freq": "Leather", "Latitude": 26.375677, "Longitude": 91.454077}, {"Code": 2222, "Name": "Rachelle Britton", "State": "ASSAM", "Type": "Park", "Freq": "Leather", "Latitude": 26.321125, "Longitude": 90.660519}, {"Code": 2223, "Name": "Christopher Whitchurch", "State": "ASSAM", "Type": "Cricket Ground", "Freq": "Leather", "Latitude": 26.213095, "Longitude": 90.120341}, {"Code": 2224, "Name": "Norma Dunham", "State": "ASSAM", "Type": "Gully Cricket", "Freq": "Leather", "Latitude": 26.093677, "Longitude": 89.960368}, {"Code": 2225, "Name": "Ricky Lavender", "State": "ASSAM", "Type": "Nets", "Freq": "Leather", "Latitude": 24.808267, "Longitude": 92.916244}, {"Code": 2226, "Name": "Abdul Harrison", "State": "ASSAM", "Type": "Park", "Freq": "Leather", "Latitude": 26.9919, "Longitude": 94.632189}, {"Code": 2227, "Name": "Joseph Hawley", "State": "ASSAM", "Type": "Gully Cricket", "Freq": "Leather", "Latitude": 26.948914, "Longitude": 94.871519}, {"Code": 2228, "Name": "Amy Carroll", "State": "ASSAM", "Type": "Nets", "Freq": "Leather", "Latitude": 26.696861, "Longitude": 93.984838}, {"Code": 2229, "Name": "Robert Tancredi", "State": "ASSAM", "Type": "Gully Cricket", "Freq": "Leather", "Latitude": 27.832518, "Longitude": 95.672347}, {"Code": 2230, "Name": "Bernard Jarvis", "State": "ASSAM", "Type": "Gully Cricket", "Freq": "Leather", "Latitude": 27.320585, "Longitude": 95.308605}, {"Code": 2231, "Name": "Patrick Roy", "State": "ASSAM", "Type": "Cricket Ground", "Freq": "Leather", "Latitude": 26.975605, "Longitude": 94.630335}, {"Code": 2232, "Name": "Pamela Cuevas", "State": "ASSAM", "Type": "Park", "Freq": "Leather", "Latitude": 26.602234, "Longitude": 93.403253}, {"Code": 2233, "Name": "Willis Betschart", "State": "ASSAM", "Type": "Cricket Ground", "Freq": "Leather", "Latitude": 27.358877, "Longitude": 94.181102}, {"Code": 2234, "Name": "Octavia Mcbain", "State": "ASSAM", "Type": "Cricket Ground", "Freq": "Leather", "Latitude": 27.342717, "Longitude": 93.816486}, {"Code": 2235, "Name": "Jennifer Crosby", "State": "ASSAM", "Type": "Gully Cricket", "Freq": "Leather", "Latitude": 26.699918, "Longitude": 92.335305}, {"Code": 2236, "Name": "Linda Garcia", "State": "ASSAM", "Type": "Nets", "Freq": "Leather", "Latitude": 26.165759, "Longitude": 92.353897}, {"Code": 2237, "Name": "Pansy Xavier", "State": "ASSAM", "Type": "Park", "Freq": "Leather", "Latitude": 26.349206, "Longitude": 92.68035}, {"Code": 2238, "Name": "Timothy Roth", "State": "ASSAM", "Type": "Cricket Ground", "Freq": "Leather", "Latitude": 26.493169, "Longitude": 90.917841}, {"Code": 2239, "Name": "Larry Collin", "State": "ASSAM", "Type": "Cricket Ground", "Freq": "Leather", "Latitude": 26.311379, "Longitude": 89.831334}, {"Code": 2240, "Name": "Marianne Fields", "State": "ASSAM", "Type": "Nets", "Freq": "Leather", "Latitude": 24.786736, "Longitude": 92.813553}, {"Code": 2241, "Name": "Gerald Hinsley", "State": "ASSAM", "Type": "Gully Cricket", "Freq": "Leather", "Latitude": 24.735544, "Longitude": 92.889269}, {"Code": 2242, "Name": "Jason Bullock", "State": "ASSAM", "Type": "Cricket Ground", "Freq": "Leather", "Latitude": 24.870906, "Longitude": 92.376439}, {"Code": 2243, "Name": "Christopher Campbell", "State": "ASSAM", "Type": "Gully Cricket", "Freq": "Leather", "Latitude": 27.28822, "Longitude": 95.680737}, {"Code": 2244, "Name": "Jonathon Garcia", "State": "ASSAM", "Type": "Cricket Ground", "Freq": "Leather", "Latitude": 26.92, "Longitude": 94.73}, {"Code": 2245, "Name": "Denise Plaisance", "State": "ASSAM", "Type": "Park", "Freq": "Leather", "Latitude": 26.5885, "Longitude": 93.748586}, {"Code": 2246, "Name": "Dewayne Lapinsky", "State": "ASSAM", "Type": "Park", "Freq": "Leather", "Latitude": 26.200386, "Longitude": 92.937992}, {"Code": 2247, "Name": "Maurice Allegra", "State": "ASSAM", "Type": "Gully Cricket", "Freq": "Leather", "Latitude": 27.595294, "Longitude": 94.724003}, {"Code": 2248, "Name": "Roger Pickle", "State": "ASSAM", "Type": "Cricket Ground", "Freq": "Leather", "Latitude": 27.224728, "Longitude": 94.107373}, {"Code": 2249, "Name": "Scott Laitila", "State": "ASSAM", "Type": "Nets", "Freq": "Leather", "Latitude": 26.65285, "Longitude": 92.792558}, {"Code": 2250, "Name": "Michael Cox", "State": "ASSAM", "Type": "Cricket Ground", "Freq": "Leather", "Latitude": 26.350383, "Longitude": 92.679592}, {"Code": 2251, "Name": "Gregory Cruz", "State": "ASSAM", "Type": "Cricket Ground", "Freq": "Leather", "Latitude": 26.1277, "Longitude": 92.215749}, {"Code": 2252, "Name": "Lynda Brown", "State": "ASSAM", "Type": "Cricket Ground", "Freq": "Leather", "Latitude": 26.105147, "Longitude": 91.712525}, {"Code": 2253, "Name": "Jason Glassman", "State": "ASSAM", "Type": "Gully Cricket", "Freq": "Leather", "Latitude": 26.444617, "Longitude": 91.441053}, {"Code": 2254, "Name": "Vincent Bown", "State": "ASSAM", "Type": "Nets", "Freq": "Leather", "Latitude": 26.5, "Longitude": 90.97}, {"Code": 2255, "Name": "John Wilson", "State": "ASSAM", "Type": "Gully Cricket", "Freq": "Leather", "Latitude": 26.515756, "Longitude": 90.532872}, {"Code": 2256, "Name": "Stephanie Larsen", "State": "ASSAM", "Type": "Nets", "Freq": "Leather", "Latitude": 26.403904, "Longitude": 90.262979}, {"Code": 2257, "Name": "Linda Pitts", "State": "ASSAM", "Type": "Gully Cricket", "Freq": "Leather", "Latitude": 26.026696, "Longitude": 89.970706}, {"Code": 2258, "Name": "Eileen Shore", "State": "ASSAM", "Type": "Gully Cricket", "Freq": "Leather", "Latitude": 26.170647, "Longitude": 90.626604}, {"Code": 2259, "Name": "John Regalado", "State": "ASSAM", "Type": "Cricket Ground", "Freq": "Leather", "Latitude": 25.84274, "Longitude": 93.425589}, {"Code": 2260, "Name": "Michael Plummer", "State": "ASSAM", "Type": "Nets", "Freq": "Leather", "Latitude": 25.847217, "Longitude": 92.574292}, {"Code": 2261, "Name": "Myung Searle", "State": "ASSAM", "Type": "Cricket Ground", "Freq": "Leather", "Latitude": 25.163311, "Longitude": 93.012825}, {"Code": 2262, "Name": "Larry Hamlett", "State": "ASSAM", "Type": "Gully Cricket", "Freq": "Leather", "Latitude": 24.866553, "Longitude": 92.367203}, {"Code": 2263, "Name": "Gregory Gomez", "State": "ASSAM", "Type": "Park", "Freq": "Leather", "Latitude": 24.681103, "Longitude": 92.563806}, {"Code": 2264, "Name": "Karen Bitting", "State": "ASSAM", "Type": "Gully Cricket", "Freq": "Leather", "Latitude": 24.861042, "Longitude": 92.596669}, {"Code": 3759, "Name": "Angela Chase", "State": "ASSAM", "Type": "Park", "Freq": "Leather", "Latitude": 27.101722, "Longitude": 93.838085}, {"Code": 3760, "Name": "Esther Pruett", "State": "ASSAM", "Type": "Park", "Freq": "Leather", "Latitude": 26.672611, "Longitude": 93.165882}, {"Code": 3761, "Name": "Karen Elliott", "State": "ASSAM", "Type": "Cricket Ground", "Freq": "Leather", "Latitude": 26.677976, "Longitude": 93.140501}, {"Code": 3762, "Name": "Joseph Almond", "State": "ASSAM", "Type": "Cricket Ground", "Freq": "Leather", "Latitude": 26.848659, "Longitude": 92.839577}, {"Code": 3763, "Name": "Lois Carrasquillo", "State": "ASSAM", "Type": "Cricket Ground", "Freq": "Leather", "Latitude": 26.779777, "Longitude": 92.836601}, {"Code": 3764, "Name": "Joe Daniels", "State": "ASSAM", "Type": "Park", "Freq": "Leather", "Latitude": 26.695365, "Longitude": 92.256473}, {"Code": 3765, "Name": "Juanita Robbins", "State": "ASSAM", "Type": "Park", "Freq": "Leather", "Latitude": 26.407684, "Longitude": 92.076405}, {"Code": 3766, "Name": "Anthony Smith", "State": "ASSAM", "Type": "Nets", "Freq": "Leather", "Latitude": 26.402321, "Longitude": 92.050237}, {"Code": 3767, "Name": "Brenda Kunze", "State": "ASSAM", "Type": "Park", "Freq": "Leather", "Latitude": 26.445342, "Longitude": 91.99591}, {"Code": 3768, "Name": "Jo Hubbard", "State": "ASSAM", "Type": "Nets", "Freq": "Leather", "Latitude": 24.807581, "Longitude": 93.110125}, {"Code": 3769, "Name": "John Burpee", "State": "ASSAM", "Type": "Cricket Ground", "Freq": "Leather", "Latitude": 26.769318, "Longitude": 94.214555}, {"Code": 3770, "Name": "Latasha Long", "State": "ASSAM", "Type": "Cricket Ground", "Freq": "Leather", "Latitude": 26.754909, "Longitude": 94.234144}, {"Code": 3771, "Name": "Mark Shapero", "State": "ASSAM", "Type": "Park", "Freq": "Leather", "Latitude": 26.587406, "Longitude": 94.186207}, {"Code": 3772, "Name": "Emily Poncedeleon", "State": "ASSAM", "Type": "Gully Cricket", "Freq": "Leather", "Latitude": 27.063845, "Longitude": 94.954788}, {"Code": 3773, "Name": "Brittany Pinto", "State": "ASSAM", "Type": "Cricket Ground", "Freq": "Leather", "Latitude": 27.027341, "Longitude": 95.031297}, {"Code": 3774, "Name": "Jonathan Steffenhagen", "State": "ASSAM", "Type": "Nets", "Freq": "Leather", "Latitude": 26.990307, "Longitude": 94.935319}, {"Code": 3775, "Name": "Melvin Calles", "State": "ASSAM", "Type": "Nets", "Freq": "Leather", "Latitude": 26.926567, "Longitude": 94.821223}, {"Code": 3776, "Name": "Dorothy Kennedy", "State": "ASSAM", "Type": "Nets", "Freq": "Leather", "Latitude": 26.814742, "Longitude": 94.805697}, {"Code": 3777, "Name": "Martin Bixler", "State": "ASSAM", "Type": "Nets", "Freq": "Leather", "Latitude": 26.996006, "Longitude": 94.636585}, {"Code": 3778, "Name": "Christina Knight", "State": "ASSAM", "Type": "Cricket Ground", "Freq": "Leather", "Latitude": 26.999059, "Longitude": 94.468503}, {"Code": 3779, "Name": "Donna Curry", "State": "ASSAM", "Type": "Nets", "Freq": "Leather", "Latitude": 26.931679, "Longitude": 94.173072}, {"Code": 3780, "Name": "Mary Betts", "State": "ASSAM", "Type": "Nets", "Freq": "Leather", "Latitude": 27.474592, "Longitude": 94.914846}, {"Code": 3781, "Name": "Maria Brown", "State": "ASSAM", "Type": "Park", "Freq": "Leather", "Latitude": 27.412578, "Longitude": 94.757007}, {"Code": 3782, "Name": "Jonathan Oconnell", "State": "ASSAM", "Type": "Gully Cricket", "Freq": "Leather", "Latitude": 27.472746, "Longitude": 94.935909}, {"Code": 3783, "Name": "Michael Preusser", "State": "ASSAM", "Type": "Park", "Freq": "Leather", "Latitude": 27.578879, "Longitude": 95.328004}, {"Code": 3784, "Name": "Marsha Matthews", "State": "ASSAM", "Type": "Nets", "Freq": "Leather", "Latitude": 27.429641, "Longitude": 95.321133}, {"Code": 3785, "Name": "John Numbers", "State": "ASSAM", "Type": "Nets", "Freq": "Leather", "Latitude": 27.456531, "Longitude": 95.411636}, {"Code": 3786, "Name": "Mary Kowalski", "State": "ASSAM", "Type": "Gully Cricket", "Freq": "Leather", "Latitude": 27.467718, "Longitude": 94.557012}, {"Code": 3787, "Name": "Foster Kelley", "State": "ASSAM", "Type": "Cricket Ground", "Freq": "Leather", "Latitude": 27.644285, "Longitude": 94.691039}, {"Code": 3788, "Name": "Lillie Wesley", "State": "ASSAM", "Type": "Nets", "Freq": "Leather", "Latitude": 27.432271, "Longitude": 94.709184}, {"Code": 3789, "Name": "Michele Henderson", "State": "ASSAM", "Type": "Nets", "Freq": "Leather", "Latitude": 27.327788, "Longitude": 94.339309}, {"Code": 3790, "Name": "Michelle Shasteen", "State": "ASSAM", "Type": "Cricket Ground", "Freq": "Leather", "Latitude": 27.441809, "Longitude": 94.292867}, {"Code": 3791, "Name": "Robert Leach", "State": "ASSAM", "Type": "Gully Cricket", "Freq": "Leather", "Latitude": 26.583602, "Longitude": 93.754972}, {"Code": 3792, "Name": "Perry Paschal", "State": "ASSAM", "Type": "Nets", "Freq": "Leather", "Latitude": 25.234537, "Longitude": 92.847473}, {"Code": 3793, "Name": "Wiley Bennett", "State": "ASSAM", "Type": "Gully Cricket", "Freq": "Leather", "Latitude": 26.522866, "Longitude": 93.961134}, {"Code": 3794, "Name": "Juana Dallmann", "State": "ASSAM", "Type": "Cricket Ground", "Freq": "Leather", "Latitude": 26.471975, "Longitude": 94.098619}, {"Code": 3795, "Name": "Marissa Erickson", "State": "ASSAM", "Type": "Park", "Freq": "Leather", "Latitude": 26.458711, "Longitude": 93.981235}, {"Code": 3796, "Name": "Maria Sherron", "State": "ASSAM", "Type": "Cricket Ground", "Freq": "Leather", "Latitude": 26.513284, "Longitude": 90.510125}, {"Code": 3797, "Name": "Darlene Hansen", "State": "ASSAM", "Type": "Park", "Freq": "Leather", "Latitude": 26.32217, "Longitude": 90.73856}, {"Code": 3798, "Name": "Michael Nixon", "State": "ASSAM", "Type": "Gully Cricket", "Freq": "Leather", "Latitude": 26.347108, "Longitude": 92.68831}, {"Code": 3799, "Name": "Betty Dietrich", "State": "ASSAM", "Type": "Cricket Ground", "Freq": "Leather", "Latitude": 26.291854, "Longitude": 92.324822}, {"Code": 3800, "Name": "Ezra Joyner", "State": "ASSAM", "Type": "Cricket Ground", "Freq": "Leather", "Latitude": 24.845637, "Longitude": 92.770562}, {"Code": 3801, "Name": "Michael Santelli", "State": "ASSAM", "Type": "Cricket Ground", "Freq": "Leather", "Latitude": 24.781654, "Longitude": 92.853933}, {"Code": 3802, "Name": "Hayley Slaton", "State": "ASSAM", "Type": "Park", "Freq": "Leather", "Latitude": 24.798461, "Longitude": 92.797513}, {"Code": 3803, "Name": "Timothy Worth", "State": "ASSAM", "Type": "Nets", "Freq": "Leather", "Latitude": 24.86051, "Longitude": 92.853024}, {"Code": 3804, "Name": "Jose Palmer", "State": "ASSAM", "Type": "Cricket Ground", "Freq": "Leather", "Latitude": 24.689305, "Longitude": 92.432391}, {"Code": 3805, "Name": "Kyle Bryan", "State": "ASSAM", "Type": "Cricket Ground", "Freq": "Leather", "Latitude": 24.864102, "Longitude": 92.358579}, {"Code": 3806, "Name": "Virgil Davis", "State": "ASSAM", "Type": "Gully Cricket", "Freq": "Leather", "Latitude": 24.674821, "Longitude": 92.561422}, {"Code": 3807, "Name": "Robert Desbiens", "State": "ASSAM", "Type": "Cricket Ground", "Freq": "Leather", "Latitude": 26.120322, "Longitude": 91.977702}, {"Code": 3808, "Name": "Robert Navarro", "State": "ASSAM", "Type": "Cricket Ground", "Freq": "Leather", "Latitude": 26.135742, "Longitude": 92.073475}, {"Code": 3809, "Name": "Ashley Gutierrez", "State": "ASSAM", "Type": "Nets", "Freq": "Leather", "Latitude": 26.19194, "Longitude": 91.748766}, {"Code": 3810, "Name": "Craig Hollyfield", "State": "ASSAM", "Type": "Gully Cricket", "Freq": "Leather", "Latitude": 26.047084, "Longitude": 91.388644}, {"Code": 3811, "Name": "Belinda Hutchins", "State": "ASSAM", "Type": "Nets", "Freq": "Leather", "Latitude": 26.448259, "Longitude": 91.564715}, {"Code": 3812, "Name": "Teresa White", "State": "ASSAM", "Type": "Cricket Ground", "Freq": "Leather", "Latitude": 26.345545, "Longitude": 91.677656}, {"Code": 3813, "Name": "Susan Bogart", "State": "ASSAM", "Type": "Park", "Freq": "Leather", "Latitude": 26.167846, "Longitude": 91.829173}, {"Code": 3814, "Name": "Chris Martinez", "State": "ASSAM", "Type": "Gully Cricket", "Freq": "Leather", "Latitude": 26.185816, "Longitude": 91.741047}, {"Code": 3815, "Name": "Elsie Tango", "State": "ASSAM", "Type": "Nets", "Freq": "Leather", "Latitude": 26.124278, "Longitude": 91.809578}, {"Code": 3816, "Name": "George Everitt", "State": "ASSAM", "Type": "Nets", "Freq": "Leather", "Latitude": 26.105895, "Longitude": 91.788621}, {"Code": 3817, "Name": "Roselyn Taylor", "State": "ASSAM", "Type": "Gully Cricket", "Freq": "Leather", "Latitude": 26.162529, "Longitude": 91.759013}, {"Code": 3818, "Name": "Bert Weidler", "State": "ASSAM", "Type": "Nets", "Freq": "Leather", "Latitude": 26.172514, "Longitude": 91.687694}, {"Code": 3819, "Name": "Virginia Melendez", "State": "ASSAM", "Type": "Nets", "Freq": "Leather", "Latitude": 26.17884, "Longitude": 91.752905}, {"Code": 3820, "Name": "Jessie Fisher", "State": "ASSAM", "Type": "Gully Cricket", "Freq": "Leather", "Latitude": 26.173177, "Longitude": 91.746326}, {"Code": 3821, "Name": "Sharon Brisco", "State": "ASSAM", "Type": "Park", "Freq": "Leather", "Latitude": 26.236174, "Longitude": 90.300305}, {"Code": 4001, "Name": "Elizabeth Pereira", "State": "ASSAM", "Type": "Park", "Freq": "Leather", "Latitude": 26.131082, "Longitude": 91.821186}, {"Code": 4002, "Name": "Ruby Hines", "State": "ASSAM", "Type": "Park", "Freq": "Leather", "Latitude": 26.168679, "Longitude": 91.728525}, {"Code": 4003, "Name": "Lucia Gillikin", "State": "ASSAM", "Type": "Cricket Ground", "Freq": "Leather", "Latitude": 26.640064, "Longitude": 92.817174}, {"Code": 4004, "Name": "Jessica Brannan", "State": "ASSAM", "Type": "Cricket Ground", "Freq": "Leather", "Latitude": 26.660261, "Longitude": 93.174272}, {"Code": 4005, "Name": "Normand Espinoza", "State": "ASSAM", "Type": "Gully Cricket", "Freq": "Leather", "Latitude": 27.053317, "Longitude": 94.67365}, {"Code": 4006, "Name": "Kenneth Roberts", "State": "ASSAM", "Type": "Cricket Ground", "Freq": "Leather", "Latitude": 27.208485, "Longitude": 94.74042}, {"Code": 4007, "Name": "James Buchanan", "State": "ASSAM", "Type": "Nets", "Freq": "Leather", "Latitude": 27.000201, "Longitude": 94.83739}, {"Code": 4008, "Name": "Marilyn Reyes", "State": "ASSAM", "Type": "Park", "Freq": "Leather", "Latitude": 26.802778, "Longitude": 94.698479}, {"Code": 4009, "Name": "Aaron Long", "State": "ASSAM", "Type": "Gully Cricket", "Freq": "Leather", "Latitude": 24.922695, "Longitude": 92.782494}, {"Code": 4010, "Name": "Shawn Stuart", "State": "ASSAM", "Type": "Nets", "Freq": "Leather", "Latitude": 24.926699, "Longitude": 92.752362}, {"Code": 4011, "Name": "William Bardwell", "State": "ASSAM", "Type": "Gully Cricket", "Freq": "Leather", "Latitude": 26.732834, "Longitude": 94.231503}, {"Code": 4012, "Name": "Leon Bangs", "State": "ASSAM", "Type": "Park", "Freq": "Leather", "Latitude": 26.4214, "Longitude": 90.51945}, {"Code": 4303, "Name": "Vanessa Mcknight", "State": "ASSAM", "Type": "Nets", "Freq": "Leather", "Latitude": 26.164973, "Longitude": 91.830489}, {"Code": 4327, "Name": "Jason Hall", "State": "ASSAM", "Type": "Park", "Freq": "Leather", "Latitude": 26.712883, "Longitude": 92.20567}, {"Code": 4328, "Name": "Pearl Phipps", "State": "ASSAM", "Type": "Nets", "Freq": "Leather", "Latitude": 26.70409, "Longitude": 92.450585}, {"Code": 4329, "Name": "Bonnie Chrisman", "State": "ASSAM", "Type": "Cricket Ground", "Freq": "Leather", "Latitude": 24.854133, "Longitude": 92.82625}, {"Code": 4330, "Name": "David Collins", "State": "ASSAM", "Type": "Cricket Ground", "Freq": "Leather", "Latitude": 24.883995, "Longitude": 92.878914}, {"Code": 4331, "Name": "Rita Herman", "State": "ASSAM", "Type": "Park", "Freq": "Leather", "Latitude": 24.679936, "Longitude": 92.560945}, {"Code": 4332, "Name": "Sergio Davis", "State": "ASSAM", "Type": "Gully Cricket", "Freq": "Leather", "Latitude": 27.130021, "Longitude": 94.738353}, {"Code": 4333, "Name": "Jewel Zahner", "State": "ASSAM", "Type": "Park", "Freq": "Leather", "Latitude": 27.126326, "Longitude": 94.741545}, {"Code": 4334, "Name": "Carl Muller", "State": "ASSAM", "Type": "Park", "Freq": "Leather", "Latitude": 27.083481, "Longitude": 94.698397}, {"Code": 4335, "Name": "Lashaun Swett", "State": "ASSAM", "Type": "Gully Cricket", "Freq": "Leather", "Latitude": 26.811289, "Longitude": 94.520046}, {"Code": 4336, "Name": "Mildred Horn", "State": "ASSAM", "Type": "Nets", "Freq": "Leather", "Latitude": 26.786797, "Longitude": 94.627518}, {"Code": 4337, "Name": "Susan Ingram", "State": "ASSAM", "Type": "Nets", "Freq": "Leather", "Latitude": 26.77465, "Longitude": 94.6681}, {"Code": 4338, "Name": "Morton Buck", "State": "ASSAM", "Type": "Gully Cricket", "Freq": "Leather", "Latitude": 26.930067, "Longitude": 94.818487}, {"Code": 4339, "Name": "Alice Shackleford", "State": "ASSAM", "Type": "Cricket Ground", "Freq": "Leather", "Latitude": 26.350254, "Longitude": 92.684866}, {"Code": 4340, "Name": "Clifford Perez", "State": "ASSAM", "Type": "Gully Cricket", "Freq": "Leather", "Latitude": 26.352638, "Longitude": 92.706719}, {"Code": 4341, "Name": "Eddie King", "State": "ASSAM", "Type": "Gully Cricket", "Freq": "Leather", "Latitude": 26.348056, "Longitude": 91.816389}, {"Code": 4342, "Name": "Antonio Howerton", "State": "ASSAM", "Type": "Gully Cricket", "Freq": "Leather", "Latitude": 26.437483, "Longitude": 91.624267}, {"Code": 4343, "Name": "Edward Travis", "State": "ASSAM", "Type": "Cricket Ground", "Freq": "Leather", "Latitude": 26.458611, "Longitude": 91.395278}, {"Code": 4344, "Name": "Joshua Castillo", "State": "ASSAM", "Type": "Cricket Ground", "Freq": "Leather", "Latitude": 26.515419, "Longitude": 91.264215}, {"Code": 4345, "Name": "Victoria Muncy", "State": "ASSAM", "Type": "Nets", "Freq": "Leather", "Latitude": 25.943333, "Longitude": 91.148889}, {"Code": 30073, "Name": "Rosemary Wilson", "State": "ASSAM", "Type": "Park", "Freq": "Leather", "Latitude": 26.017997, "Longitude": 93.791264}, {"Code": 30074, "Name": "Nicole Bugarin", "State": "ASSAM", "Type": "Cricket Ground", "Freq": "Leather", "Latitude": 26.583641, "Longitude": 93.755006}, {"Code": 1074, "Name": "Irvin Castellon", "State": "BIHAR", "Type": "Gully Cricket", "Freq": "Leather", "Latitude": 25.573508, "Longitude": 83.966669}, {"Code": 1075, "Name": "Mary Smith", "State": "BIHAR", "Type": "Nets", "Freq": "Leather", "Latitude": 25.5753, "Longitude": 84.798144}, {"Code": 1076, "Name": "Dominick Miller", "State": "BIHAR", "Type": "Gully Cricket", "Freq": "Leather", "Latitude": 25.771153, "Longitude": 84.654639}, {"Code": 1077, "Name": "Gerald Dow", "State": "BIHAR", "Type": "Cricket Ground", "Freq": "Leather", "Latitude": 25.650869, "Longitude": 85.115085}, {"Code": 1078, "Name": "Patricia Vazquez", "State": "BIHAR", "Type": "Cricket Ground", "Freq": "Leather", "Latitude": 25.675279, "Longitude": 85.189845}, {"Code": 1079, "Name": "Adam Anaya", "State": "BIHAR", "Type": "Park", "Freq": "Leather", "Latitude": 25.613753, "Longitude": 85.204131}, {"Code": 1815, "Name": "Vivian Brown", "State": "BIHAR", "Type": "Cricket Ground", "Freq": "Leather", "Latitude": 25.381441, "Longitude": 85.987169}, {"Code": 1816, "Name": "Kayleen Snead", "State": "BIHAR", "Type": "Nets", "Freq": "Leather", "Latitude": 25.267334, "Longitude": 87.227318}, {"Code": 1817, "Name": "Traci Kim", "State": "BIHAR", "Type": "Gully Cricket", "Freq": "Leather", "Latitude": 25.401104, "Longitude": 85.923198}, {"Code": 1818, "Name": "Jeffrey Haugh", "State": "BIHAR", "Type": "Cricket Ground", "Freq": "Leather", "Latitude": 25.384978, "Longitude": 86.458978}, {"Code": 1819, "Name": "Nichole Long", "State": "BIHAR", "Type": "Gully Cricket", "Freq": "Leather", "Latitude": 25.254387, "Longitude": 86.948424}, {"Code": 1820, "Name": "Eliza Sullivan", "State": "BIHAR", "Type": "Nets", "Freq": "Leather", "Latitude": 26.960335, "Longitude": 84.534192}, {"Code": 1821, "Name": "Stephen Jones", "State": "BIHAR", "Type": "Nets", "Freq": "Leather", "Latitude": 26.222639, "Longitude": 84.354122}, {"Code": 1822, "Name": "Roland Boling", "State": "BIHAR", "Type": "Gully Cricket", "Freq": "Leather", "Latitude": 26.98375, "Longitude": 84.857739}, {"Code": 1823, "Name": "Kathy Starnes", "State": "BIHAR", "Type": "Nets", "Freq": "Leather", "Latitude": 26.410836, "Longitude": 86.237178}, {"Code": 1824, "Name": "Hugo Wallace", "State": "BIHAR", "Type": "Nets", "Freq": "Leather", "Latitude": 26.399461, "Longitude": 87.242477}, {"Code": 1825, "Name": "David Ware", "State": "BIHAR", "Type": "Gully Cricket", "Freq": "Leather", "Latitude": 25.579122, "Longitude": 85.253317}, {"Code": 1826, "Name": "Anna Hatchett", "State": "BIHAR", "Type": "Nets", "Freq": "Leather", "Latitude": 25.593237, "Longitude": 85.174164}, {"Code": 1827, "Name": "Joseph Cooper", "State": "BIHAR", "Type": "Nets", "Freq": "Leather", "Latitude": 25.620924, "Longitude": 85.159936}, {"Code": 1828, "Name": "Brian Price", "State": "BIHAR", "Type": "Gully Cricket", "Freq": "Leather", "Latitude": 25.609619, "Longitude": 85.136893}, {"Code": 1829, "Name": "Bess Saunders", "State": "BIHAR", "Type": "Cricket Ground", "Freq": "Leather", "Latitude": 25.611612, "Longitude": 85.09125}, {"Code": 1830, "Name": "Ann Moore", "State": "BIHAR", "Type": "Park", "Freq": "Leather", "Latitude": 26.122167, "Longitude": 85.382451}, {"Code": 1831, "Name": "Stanley Acuna", "State": "BIHAR", "Type": "Cricket Ground", "Freq": "Leather", "Latitude": 26.123515, "Longitude": 85.378269}, {"Code": 1832, "Name": "Joseph Ebel", "State": "BIHAR", "Type": "Gully Cricket", "Freq": "Leather", "Latitude": 25.413449, "Longitude": 86.139054}, {"Code": 1833, "Name": "Cecile Simmons", "State": "BIHAR", "Type": "Park", "Freq": "Leather", "Latitude": 25.415751, "Longitude": 86.135881}, {"Code": 1834, "Name": "Shawn Goering", "State": "BIHAR", "Type": "Park", "Freq": "Leather", "Latitude": 25.783319, "Longitude": 87.466672}, {"Code": 1835, "Name": "Jimmy Barber", "State": "BIHAR", "Type": "Nets", "Freq": "Leather", "Latitude": 25.772242, "Longitude": 87.467227}, {"Code": 1836, "Name": "Mary Flesher", "State": "BIHAR", "Type": "Cricket Ground", "Freq": "Leather", "Latitude": 25.419944, "Longitude": 86.129972}, {"Code": 1837, "Name": "Tony Henderson", "State": "BIHAR", "Type": "Park", "Freq": "Leather", "Latitude": 25.419953, "Longitude": 86.129981}, {"Code": 1838, "Name": "Jeanne Buczek", "State": "BIHAR", "Type": "Park", "Freq": "Leather", "Latitude": 25.380978, "Longitude": 86.465003}, {"Code": 1839, "Name": "Kim Davis", "State": "BIHAR", "Type": "Cricket Ground", "Freq": "Leather", "Latitude": 25.372324, "Longitude": 86.471752}, {"Code": 1840, "Name": "Francisco Wells", "State": "BIHAR", "Type": "Gully Cricket", "Freq": "Leather", "Latitude": 26.649806, "Longitude": 84.916775}, {"Code": 1841, "Name": "Robert Miller", "State": "BIHAR", "Type": "Park", "Freq": "Leather", "Latitude": 24.794784, "Longitude": 85.007259}, {"Code": 1842, "Name": "Elizabeth Smith", "State": "BIHAR", "Type": "Park", "Freq": "Leather", "Latitude": 24.795406, "Longitude": 84.999433}, {"Code": 1843, "Name": "Richard Mitchener", "State": "BIHAR", "Type": "Cricket Ground", "Freq": "Leather", "Latitude": 25.017233, "Longitude": 85.416189}, {"Code": 1844, "Name": "Susan Kessler", "State": "BIHAR", "Type": "Cricket Ground", "Freq": "Leather", "Latitude": 25.783556, "Longitude": 84.75325}, {"Code": 2551, "Name": "Jay Smith", "State": "BIHAR", "Type": "Cricket Ground", "Freq": "Leather", "Latitude": 25.576142, "Longitude": 83.970428}, {"Code": 2552, "Name": "Cecile Resendez", "State": "BIHAR", "Type": "Cricket Ground", "Freq": "Leather", "Latitude": 25.622179, "Longitude": 85.172816}, {"Code": 2553, "Name": "Dustin Couch", "State": "BIHAR", "Type": "Park", "Freq": "Leather", "Latitude": 25.511611, "Longitude": 85.307417}, {"Code": 2554, "Name": "Peggy Cobb", "State": "BIHAR", "Type": "Cricket Ground", "Freq": "Leather", "Latitude": 25.257511, "Longitude": 86.747053}, {"Code": 2555, "Name": "Thurman Phillips", "State": "BIHAR", "Type": "Nets", "Freq": "Leather", "Latitude": 25.627333, "Longitude": 85.155472}, {"Code": 2556, "Name": "Cheryl Householder", "State": "BIHAR", "Type": "Park", "Freq": "Leather", "Latitude": 24.902403, "Longitude": 84.2074}, {"Code": 2557, "Name": "Edward Searight", "State": "BIHAR", "Type": "Park", "Freq": "Leather", "Latitude": 25.623756, "Longitude": 86.142711}, {"Code": 2558, "Name": "Andrea Jones", "State": "BIHAR", "Type": "Cricket Ground", "Freq": "Leather", "Latitude": 27.105529, "Longitude": 84.454541}, {"Code": 2559, "Name": "Philip Reyes", "State": "BIHAR", "Type": "Gully Cricket", "Freq": "Leather", "Latitude": 27.170083, "Longitude": 84.322471}, {"Code": 2560, "Name": "Philip Rice", "State": "BIHAR", "Type": "Nets", "Freq": "Leather", "Latitude": 26.520035, "Longitude": 84.357095}, {"Code": 2561, "Name": "Bernice Gray", "State": "BIHAR", "Type": "Gully Cricket", "Freq": "Leather", "Latitude": 26.223497, "Longitude": 84.347097}, {"Code": 2562, "Name": "Allen Lamke", "State": "BIHAR", "Type": "Cricket Ground", "Freq": "Leather", "Latitude": 26.138571, "Longitude": 85.388808}, {"Code": 2563, "Name": "Helen Carriere", "State": "BIHAR", "Type": "Cricket Ground", "Freq": "Leather", "Latitude": 26.576389, "Longitude": 85.317222}, {"Code": 2564, "Name": "Nelson Fernandez", "State": "BIHAR", "Type": "Nets", "Freq": "Leather", "Latitude": 25.708441, "Longitude": 84.889727}, {"Code": 2565, "Name": "Margaret Farmer", "State": "BIHAR", "Type": "Park", "Freq": "Leather", "Latitude": 25.42082, "Longitude": 87.236262}, {"Code": 2566, "Name": "Angela Thomas", "State": "BIHAR", "Type": "Cricket Ground", "Freq": "Leather", "Latitude": 25.930352, "Longitude": 86.801274}, {"Code": 2567, "Name": "Tracy Telesco", "State": "BIHAR", "Type": "Park", "Freq": "Leather", "Latitude": 26.269758, "Longitude": 86.268875}, {"Code": 2568, "Name": "Jennie Johnson", "State": "BIHAR", "Type": "Cricket Ground", "Freq": "Leather", "Latitude": 25.988349, "Longitude": 85.045545}, {"Code": 2569, "Name": "Maribel Walsh", "State": "BIHAR", "Type": "Cricket Ground", "Freq": "Leather", "Latitude": 26.135844, "Longitude": 86.333137}, {"Code": 2570, "Name": "Sherry Dowd", "State": "BIHAR", "Type": "Park", "Freq": "Leather", "Latitude": 25.867123, "Longitude": 85.784927}, {"Code": 2571, "Name": "Alma Crosby", "State": "BIHAR", "Type": "Nets", "Freq": "Leather", "Latitude": 26.646875, "Longitude": 84.922831}, {"Code": 2572, "Name": "Louise Pendergrass", "State": "BIHAR", "Type": "Cricket Ground", "Freq": "Leather", "Latitude": 26.392347, "Longitude": 88.155896}, {"Code": 2573, "Name": "Kirby Carchi", "State": "BIHAR", "Type": "Nets", "Freq": "Leather", "Latitude": 24.789701, "Longitude": 85.004648}, {"Code": 2574, "Name": "Kasandra Zuchelkowski", "State": "BIHAR", "Type": "Cricket Ground", "Freq": "Leather", "Latitude": 24.779015, "Longitude": 85.008927}, {"Code": 2575, "Name": "Susan Carter", "State": "BIHAR", "Type": "Nets", "Freq": "Leather", "Latitude": 26.560646, "Longitude": 85.052409}, {"Code": 2576, "Name": "Barbara Vanetta", "State": "BIHAR", "Type": "Cricket Ground", "Freq": "Leather", "Latitude": 24.754222, "Longitude": 84.373768}, {"Code": 2577, "Name": "Glenn Sallas", "State": "BIHAR", "Type": "Park", "Freq": "Leather", "Latitude": 26.13508, "Longitude": 87.467551}, {"Code": 2578, "Name": "Jason Jackson", "State": "BIHAR", "Type": "Cricket Ground", "Freq": "Leather", "Latitude": 25.325799, "Longitude": 84.605419}, {"Code": 2579, "Name": "Connie Wilson", "State": "BIHAR", "Type": "Cricket Ground", "Freq": "Leather", "Latitude": 25.566265, "Longitude": 83.983535}, {"Code": 2580, "Name": "Rhonda Garman", "State": "BIHAR", "Type": "Cricket Ground", "Freq": "Leather", "Latitude": 25.040383, "Longitude": 83.610998}, {"Code": 2581, "Name": "Michael Salazar", "State": "BIHAR", "Type": "Cricket Ground", "Freq": "Leather", "Latitude": 26.160497, "Longitude": 85.899783}, {"Code": 2582, "Name": "Charles Watson", "State": "BIHAR", "Type": "Nets", "Freq": "Leather", "Latitude": 26.187745, "Longitude": 85.903178}, {"Code": 2583, "Name": "Abby Mclean", "State": "BIHAR", "Type": "Park", "Freq": "Leather", "Latitude": 26.46047, "Longitude": 84.438832}, {"Code": 2584, "Name": "John Morin", "State": "BIHAR", "Type": "Cricket Ground", "Freq": "Leather", "Latitude": 26.429064, "Longitude": 84.394487}, {"Code": 2585, "Name": "Jessie Slaton", "State": "BIHAR", "Type": "Cricket Ground", "Freq": "Leather", "Latitude": 25.216006, "Longitude": 84.9842}, {"Code": 2586, "Name": "Antoinette Frazier", "State": "BIHAR", "Type": "Gully Cricket", "Freq": "Leather", "Latitude": 25.541982, "Longitude": 87.567477}, {"Code": 2587, "Name": "Barbara Walden", "State": "BIHAR", "Type": "Nets", "Freq": "Leather", "Latitude": 25.483817, "Longitude": 86.701389}, {"Code": 2588, "Name": "Frank Harrington", "State": "BIHAR", "Type": "Park", "Freq": "Leather", "Latitude": 25.676944, "Longitude": 86.943056}, {"Code": 2589, "Name": "Lisa Gailey", "State": "BIHAR", "Type": "Park", "Freq": "Leather", "Latitude": 25.916944, "Longitude": 86.778611}, {"Code": 2590, "Name": "Alice Pope", "State": "BIHAR", "Type": "Park", "Freq": "Leather", "Latitude": 26.345964, "Longitude": 86.071781}, {"Code": 2591, "Name": "Raymond Varnell", "State": "BIHAR", "Type": "Cricket Ground", "Freq": "Leather", "Latitude": 25.139348, "Longitude": 85.451156}, {"Code": 2592, "Name": "Cassandra Cates", "State": "BIHAR", "Type": "Park", "Freq": "Leather", "Latitude": 25.124061, "Longitude": 85.459475}, {"Code": 2593, "Name": "Tina Lang", "State": "BIHAR", "Type": "Cricket Ground", "Freq": "Leather", "Latitude": 24.880028, "Longitude": 85.529992}, {"Code": 2594, "Name": "Louise Given", "State": "BIHAR", "Type": "Gully Cricket", "Freq": "Leather", "Latitude": 25.870544, "Longitude": 86.601375}, {"Code": 2595, "Name": "Donna Morrison", "State": "BIHAR", "Type": "Gully Cricket", "Freq": "Leather", "Latitude": 25.862969, "Longitude": 85.781044}, {"Code": 2596, "Name": "Tamara Quiles", "State": "BIHAR", "Type": "Nets", "Freq": "Leather", "Latitude": 26.588721, "Longitude": 85.501282}, {"Code": 2597, "Name": "Arthur Orr", "State": "BIHAR", "Type": "Park", "Freq": "Leather", "Latitude": 26.210096, "Longitude": 84.365362}, {"Code": 2598, "Name": "Janice Cooley", "State": "BIHAR", "Type": "Park", "Freq": "Leather", "Latitude": 24.628777, "Longitude": 83.920541}, {"Code": 2599, "Name": "Hazel England", "State": "BIHAR", "Type": "Gully Cricket", "Freq": "Leather", "Latitude": 24.625089, "Longitude": 83.918998}, {"Code": 2600, "Name": "Barbara Wilson", "State": "BIHAR", "Type": "Nets", "Freq": "Leather", "Latitude": 25.683822, "Longitude": 85.354964}, {"Code": 3113, "Name": "Nancy Bagley", "State": "BIHAR", "Type": "Cricket Ground", "Freq": "Leather", "Latitude": 25.588972, "Longitude": 83.985861}, {"Code": 3114, "Name": "Jerry Wilder", "State": "BIHAR", "Type": "Park", "Freq": "Leather", "Latitude": 25.588972, "Longitude": 83.985861}, {"Code": 3115, "Name": "Angel Westbrook", "State": "BIHAR", "Type": "Cricket Ground", "Freq": "Leather", "Latitude": 25.487275, "Longitude": 85.705236}, {"Code": 3116, "Name": "Renee Johnson", "State": "BIHAR", "Type": "Nets", "Freq": "Leather", "Latitude": 25.368174, "Longitude": 86.464302}, {"Code": 3117, "Name": "Linda Rodriguez", "State": "BIHAR", "Type": "Gully Cricket", "Freq": "Leather", "Latitude": 25.252575, "Longitude": 86.725558}, {"Code": 3118, "Name": "Donald Frye", "State": "BIHAR", "Type": "Park", "Freq": "Leather", "Latitude": 25.271603, "Longitude": 87.025665}, {"Code": 3119, "Name": "Rosario Hughes", "State": "BIHAR", "Type": "Park", "Freq": "Leather", "Latitude": 25.513517, "Longitude": 85.292658}, {"Code": 3120, "Name": "Teresa Schmidt", "State": "BIHAR", "Type": "Park", "Freq": "Leather", "Latitude": 25.217822, "Longitude": 84.826131}, {"Code": 3121, "Name": "Berniece Davison", "State": "BIHAR", "Type": "Gully Cricket", "Freq": "Leather", "Latitude": 24.671905, "Longitude": 84.010068}, {"Code": 3122, "Name": "Vincent Patterson", "State": "BIHAR", "Type": "Nets", "Freq": "Leather", "Latitude": 25.557806, "Longitude": 85.275648}, {"Code": 3123, "Name": "Brandi Toth", "State": "BIHAR", "Type": "Cricket Ground", "Freq": "Leather", "Latitude": 25.315313, "Longitude": 86.029821}, {"Code": 3124, "Name": "Bethany Kirsch", "State": "BIHAR", "Type": "Cricket Ground", "Freq": "Leather", "Latitude": 26.136076, "Longitude": 85.381196}, {"Code": 3125, "Name": "Jon Gamble", "State": "BIHAR", "Type": "Park", "Freq": "Leather", "Latitude": 26.360672, "Longitude": 84.749947}, {"Code": 3126, "Name": "Jessie Watson", "State": "BIHAR", "Type": "Cricket Ground", "Freq": "Leather", "Latitude": 27.094829, "Longitude": 84.143868}, {"Code": 3127, "Name": "Erica Christensen", "State": "BIHAR", "Type": "Nets", "Freq": "Leather", "Latitude": 25.297742, "Longitude": 84.678992}, {"Code": 3128, "Name": "Kenny Adams", "State": "BIHAR", "Type": "Cricket Ground", "Freq": "Leather", "Latitude": 25.045209, "Longitude": 84.332819}, {"Code": 3129, "Name": "Amy Burbank", "State": "BIHAR", "Type": "Park", "Freq": "Leather", "Latitude": 26.364956, "Longitude": 84.360872}, {"Code": 3130, "Name": "Douglas Wells", "State": "BIHAR", "Type": "Cricket Ground", "Freq": "Leather", "Latitude": 27.17026, "Longitude": 84.322348}, {"Code": 3131, "Name": "Scott Ceaser", "State": "BIHAR", "Type": "Park", "Freq": "Leather", "Latitude": 26.658543, "Longitude": 85.400266}, {"Code": 3132, "Name": "Rochelle Steger", "State": "BIHAR", "Type": "Gully Cricket", "Freq": "Leather", "Latitude": 26.341991, "Longitude": 85.481683}, {"Code": 3133, "Name": "Louella Thomas", "State": "BIHAR", "Type": "Park", "Freq": "Leather", "Latitude": 26.596857, "Longitude": 86.144676}, {"Code": 3134, "Name": "Jeffrey Overby", "State": "BIHAR", "Type": "Cricket Ground", "Freq": "Leather", "Latitude": 26.148036, "Longitude": 85.373764}, {"Code": 3135, "Name": "Leah Greenhouse", "State": "BIHAR", "Type": "Park", "Freq": "Leather", "Latitude": 26.038984, "Longitude": 85.891341}, {"Code": 3136, "Name": "Rhonda Cooper", "State": "BIHAR", "Type": "Cricket Ground", "Freq": "Leather", "Latitude": 26.988061, "Longitude": 84.855244}, {"Code": 3137, "Name": "Ashley Gutierrez", "State": "BIHAR", "Type": "Park", "Freq": "Leather", "Latitude": 25.386081, "Longitude": 87.092419}, {"Code": 3138, "Name": "Bertha Downs", "State": "BIHAR", "Type": "Gully Cricket", "Freq": "Leather", "Latitude": 25.555753, "Longitude": 84.661464}, {"Code": 3139, "Name": "Frederick Murray", "State": "BIHAR", "Type": "Cricket Ground", "Freq": "Leather", "Latitude": 26.130901, "Longitude": 87.44426}, {"Code": 3140, "Name": "Lawrence Hamilton", "State": "BIHAR", "Type": "Nets", "Freq": "Leather", "Latitude": 26.801253, "Longitude": 84.503617}, {"Code": 3141, "Name": "Mary Polland", "State": "BIHAR", "Type": "Gully Cricket", "Freq": "Leather", "Latitude": 24.696722, "Longitude": 84.986056}, {"Code": 3142, "Name": "Linda Shinn", "State": "BIHAR", "Type": "Gully Cricket", "Freq": "Leather", "Latitude": 25.198364, "Longitude": 84.252158}, {"Code": 3143, "Name": "Marion Crowson", "State": "BIHAR", "Type": "Gully Cricket", "Freq": "Leather", "Latitude": 27.127814, "Longitude": 84.067542}, {"Code": 3144, "Name": "Esther Holland", "State": "BIHAR", "Type": "Nets", "Freq": "Leather", "Latitude": 25.471956, "Longitude": 85.707546}, {"Code": 3145, "Name": "Mark Bouknight", "State": "BIHAR", "Type": "Gully Cricket", "Freq": "Leather", "Latitude": 24.928792, "Longitude": 84.187828}, {"Code": 3146, "Name": "Pricilla Jayne", "State": "BIHAR", "Type": "Nets", "Freq": "Leather", "Latitude": 25.549911, "Longitude": 84.150194}, {"Code": 3147, "Name": "Elizabeth Smith", "State": "BIHAR", "Type": "Gully Cricket", "Freq": "Leather", "Latitude": 26.592486, "Longitude": 86.137611}, {"Code": 3148, "Name": "Rhonda Brassell", "State": "BIHAR", "Type": "Park", "Freq": "Leather", "Latitude": 25.309172, "Longitude": 86.489908}, {"Code": 3149, "Name": "John Granfield", "State": "BIHAR", "Type": "Nets", "Freq": "Leather", "Latitude": 25.011592, "Longitude": 83.660808}, {"Code": 3150, "Name": "Joseph Mayo", "State": "BIHAR", "Type": "Gully Cricket", "Freq": "Leather", "Latitude": 25.644867, "Longitude": 84.873763}, {"Code": 3151, "Name": "Billie Yoder", "State": "BIHAR", "Type": "Gully Cricket", "Freq": "Leather", "Latitude": 25.168678, "Longitude": 83.618608}, {"Code": 3152, "Name": "Robert Soto", "State": "BIHAR", "Type": "Cricket Ground", "Freq": "Leather", "Latitude": 27.107417, "Longitude": 84.467131}, {"Code": 3153, "Name": "Lavera Hutnak", "State": "BIHAR", "Type": "Gully Cricket", "Freq": "Leather", "Latitude": 25.328697, "Longitude": 84.410572}, {"Code": 3154, "Name": "Lourdes Howard", "State": "BIHAR", "Type": "Gully Cricket", "Freq": "Leather", "Latitude": 24.789593, "Longitude": 84.999556}, {"Code": 3155, "Name": "Carl Henry", "State": "BIHAR", "Type": "Gully Cricket", "Freq": "Leather", "Latitude": 26.114017, "Longitude": 86.601053}, {"Code": 3156, "Name": "Michele Boothe", "State": "BIHAR", "Type": "Park", "Freq": "Leather", "Latitude": 25.862744, "Longitude": 85.777669}, {"Code": 3157, "Name": "Mary Gavia", "State": "BIHAR", "Type": "Nets", "Freq": "Leather", "Latitude": 25.238589, "Longitude": 86.741767}, {"Code": 3158, "Name": "Lisa Pruitt", "State": "BIHAR", "Type": "Nets", "Freq": "Leather", "Latitude": 24.558892, "Longitude": 84.799511}, {"Code": 3159, "Name": "Lorrie Schulman", "State": "BIHAR", "Type": "Nets", "Freq": "Leather", "Latitude": 25.586566, "Longitude": 84.449575}, {"Code": 3160, "Name": "Justin Foster", "State": "BIHAR", "Type": "Nets", "Freq": "Leather", "Latitude": 26.981397, "Longitude": 84.853981}, {"Code": 3161, "Name": "Rubie Olvera", "State": "BIHAR", "Type": "Cricket Ground", "Freq": "Leather", "Latitude": 25.534142, "Longitude": 87.580264}, {"Code": 3162, "Name": "Carole Thompson", "State": "BIHAR", "Type": "Cricket Ground", "Freq": "Leather", "Latitude": 26.004064, "Longitude": 85.08065}, {"Code": 4291, "Name": "April Nelson", "State": "BIHAR", "Type": "Gully Cricket", "Freq": "Leather", "Latitude": 27.105633, "Longitude": 84.454622}, {"Code": 4292, "Name": "Dana Healy", "State": "BIHAR", "Type": "Cricket Ground", "Freq": "Leather", "Latitude": 26.231264, "Longitude": 84.354868}, {"Code": 4293, "Name": "David Sessions", "State": "BIHAR", "Type": "Gully Cricket", "Freq": "Leather", "Latitude": 26.78378, "Longitude": 84.65578}, {"Code": 4294, "Name": "Matthew Scott", "State": "BIHAR", "Type": "Gully Cricket", "Freq": "Leather", "Latitude": 26.784669, "Longitude": 84.655511}, {"Code": 4295, "Name": "Deann Wyche", "State": "BIHAR", "Type": "Park", "Freq": "Leather", "Latitude": 25.501374, "Longitude": 86.479837}, {"Code": 4296, "Name": "John Henderson", "State": "BIHAR", "Type": "Cricket Ground", "Freq": "Leather", "Latitude": 26.132233, "Longitude": 85.373389}, {"Code": 4297, "Name": "Robert Kraus", "State": "BIHAR", "Type": "Cricket Ground", "Freq": "Leather", "Latitude": 25.548238, "Longitude": 85.279377}, {"Code": 4298, "Name": "Henry Decamp", "State": "BIHAR", "Type": "Nets", "Freq": "Leather", "Latitude": 24.902545, "Longitude": 84.195807}, {"Code": 4299, "Name": "Felicia Rios", "State": "BIHAR", "Type": "Nets", "Freq": "Leather", "Latitude": 26.195014, "Longitude": 85.998259}, {"Code": 4300, "Name": "Mariana Blum", "State": "BIHAR", "Type": "Gully Cricket", "Freq": "Leather", "Latitude": 26.660087, "Longitude": 85.01303}, {"Code": 4301, "Name": "Megan Jeske", "State": "BIHAR", "Type": "Cricket Ground", "Freq": "Leather", "Latitude": 25.655635, "Longitude": 85.096308}, {"Code": 4397, "Name": "Laura Lindgren", "State": "BIHAR", "Type": "Park", "Freq": "Leather", "Latitude": 26.222569, "Longitude": 84.354022}, {"Code": 4398, "Name": "John Fishman", "State": "BIHAR", "Type": "Park", "Freq": "Leather", "Latitude": 25.257757, "Longitude": 86.978188}, {"Code": 4399, "Name": "Sergio Lynch", "State": "BIHAR", "Type": "Gully Cricket", "Freq": "Leather", "Latitude": 27.096767, "Longitude": 84.121881}, {"Code": 4400, "Name": "Wendy Klopfenstein", "State": "BIHAR", "Type": "Nets", "Freq": "Leather", "Latitude": 26.588526, "Longitude": 85.499289}, {"Code": 4401, "Name": "Cathy Contreras", "State": "BIHAR", "Type": "Gully Cricket", "Freq": "Leather", "Latitude": 26.73899, "Longitude": 85.541954}, {"Code": 4402, "Name": "Brenda Thompson", "State": "BIHAR", "Type": "Park", "Freq": "Leather", "Latitude": 25.527166, "Longitude": 85.396373}, {"Code": 4403, "Name": "Charles Hice", "State": "BIHAR", "Type": "Gully Cricket", "Freq": "Leather", "Latitude": 26.415383, "Longitude": 85.066452}, {"Code": 4404, "Name": "William Hubert", "State": "BIHAR", "Type": "Cricket Ground", "Freq": "Leather", "Latitude": 25.724543, "Longitude": 84.825249}, {"Code": 4405, "Name": "Patricia Loving", "State": "BIHAR", "Type": "Nets", "Freq": "Leather", "Latitude": 26.411533, "Longitude": 86.237133}, {"Code": 4406, "Name": "Lois Goldsberry", "State": "BIHAR", "Type": "Cricket Ground", "Freq": "Leather", "Latitude": 24.885016, "Longitude": 84.213799}, {"Code": 4407, "Name": "Michael Dupre", "State": "BIHAR", "Type": "Nets", "Freq": "Leather", "Latitude": 24.887181, "Longitude": 84.2106}, {"Code": 4913, "Name": "Grace Phillips", "State": "BIHAR", "Type": "Park", "Freq": "Leather", "Latitude": 25.240939, "Longitude": 84.643099}, {"Code": 10113, "Name": "Ronald Olson", "State": "BIHAR", "Type": "Gully Cricket", "Freq": "Leather", "Latitude": 25.484321, "Longitude": 85.668239}, {"Code": 10114, "Name": "Mary Robinson", "State": "BIHAR", "Type": "Nets", "Freq": "Leather", "Latitude": 25.740235, "Longitude": 84.963161}, {"Code": 10115, "Name": "Jeffrey Boyer", "State": "BIHAR", "Type": "Nets", "Freq": "Leather", "Latitude": 25.620356, "Longitude": 85.179995}, {"Code": 10122, "Name": "June Armstrong", "State": "BIHAR", "Type": "Nets", "Freq": "Leather", "Latitude": 25.515132, "Longitude": 85.301372}, {"Code": 10126, "Name": "April Jackson", "State": "BIHAR", "Type": "Cricket Ground", "Freq": "Leather", "Latitude": 25.678586, "Longitude": 85.194604}, {"Code": 10130, "Name": "Nichole Swink", "State": "BIHAR", "Type": "Nets", "Freq": "Leather", "Latitude": 24.890805, "Longitude": 85.56}, {"Code": 10131, "Name": "Emilia Pierce", "State": "BIHAR", "Type": "Park", "Freq": "Leather", "Latitude": 25.586863, "Longitude": 84.693046}, {"Code": 10138, "Name": "Arthur Frazier", "State": "BIHAR", "Type": "Gully Cricket", "Freq": "Leather", "Latitude": 25.242256, "Longitude": 86.925987}, {"Code": 10143, "Name": "Steve Romero", "State": "BIHAR", "Type": "Nets", "Freq": "Leather", "Latitude": 25.31074, "Longitude": 83.014205}, {"Code": 10162, "Name": "Dorothy Morris", "State": "BIHAR", "Type": "Nets", "Freq": "Leather", "Latitude": 25.68032, "Longitude": 84.785773}, {"Code": 10163, "Name": "Larry Adamson", "State": "BIHAR", "Type": "Nets", "Freq": "Leather", "Latitude": 25.692357, "Longitude": 85.195574}, {"Code": 30076, "Name": "Maxine Palacios", "State": "BIHAR", "Type": "Nets", "Freq": "Leather", "Latitude": 25.744119, "Longitude": 84.676765}, {"Code": 2039, "Name": "Bobby Holder", "State": "CHANDIGARH", "Type": "Nets", "Freq": "Leather", "Latitude": 30.751489, "Longitude": 76.772606}, {"Code": 2040, "Name": "Betty Albrecht", "State": "CHANDIGARH", "Type": "Park", "Freq": "Leather", "Latitude": 30.73405, "Longitude": 76.773239}, {"Code": 2041, "Name": "Hilda Sweed", "State": "CHANDIGARH", "Type": "Cricket Ground", "Freq": "Leather", "Latitude": 30.719562, "Longitude": 76.76397}, {"Code": 2042, "Name": "Mary Sheldon", "State": "CHANDIGARH", "Type": "Park", "Freq": "Leather", "Latitude": 30.694747, "Longitude": 76.769719}, {"Code": 2043, "Name": "Jack Nquyen", "State": "CHANDIGARH", "Type": "Park", "Freq": "Leather", "Latitude": 30.731825, "Longitude": 76.725717}, {"Code": 2044, "Name": "Joan Givens", "State": "CHANDIGARH", "Type": "Gully Cricket", "Freq": "Leather", "Latitude": 30.776019, "Longitude": 76.74926}, {"Code": 2045, "Name": "Simon Mimnaugh", "State": "CHANDIGARH", "Type": "Cricket Ground", "Freq": "Leather", "Latitude": 30.75385, "Longitude": 76.740867}, {"Code": 2046, "Name": "Adam Rice", "State": "CHANDIGARH", "Type": "Gully Cricket", "Freq": "Leather", "Latitude": 30.742139, "Longitude": 76.818756}, {"Code": 2047, "Name": "Sara Carlson", "State": "CHANDIGARH", "Type": "Nets", "Freq": "Leather", "Latitude": 30.742291, "Longitude": 76.767246}, {"Code": 2048, "Name": "Lynda Smith", "State": "CHANDIGARH", "Type": "Park", "Freq": "Leather", "Latitude": 30.767109, "Longitude": 76.760883}, {"Code": 2049, "Name": "Mark Montgomery", "State": "CHANDIGARH", "Type": "Cricket Ground", "Freq": "Leather", "Latitude": 30.706008, "Longitude": 76.815213}, {"Code": 1099, "Name": "Shirley Maroon", "State": "CHHATTISGARH", "Type": "Park", "Freq": "Leather", "Latitude": 20.969822, "Longitude": 81.876732}, {"Code": 1100, "Name": "Milford Marron", "State": "CHHATTISGARH", "Type": "Cricket Ground", "Freq": "Leather", "Latitude": 21.730837, "Longitude": 82.565689}, {"Code": 1101, "Name": "Anna Hawker", "State": "CHHATTISGARH", "Type": "Gully Cricket", "Freq": "Leather", "Latitude": 21.665195, "Longitude": 83.433435}, {"Code": 1105, "Name": "Michael Mendoza", "State": "CHHATTISGARH", "Type": "Nets", "Freq": "Leather", "Latitude": 22.380472, "Longitude": 82.708433}, {"Code": 1106, "Name": "Harry Mccann", "State": "CHHATTISGARH", "Type": "Nets", "Freq": "Leather", "Latitude": 22.048233, "Longitude": 82.634978}, {"Code": 1107, "Name": "Kevin Pigg", "State": "CHHATTISGARH", "Type": "Cricket Ground", "Freq": "Leather", "Latitude": 21.038264, "Longitude": 80.973647}, {"Code": 1264, "Name": "Raymond Betterton", "State": "CHHATTISGARH", "Type": "Park", "Freq": "Leather", "Latitude": 20.652037, "Longitude": 81.551365}, {"Code": 1265, "Name": "Paul Vaness", "State": "CHHATTISGARH", "Type": "Nets", "Freq": "Leather", "Latitude": 21.248011, "Longitude": 81.542917}, {"Code": 1266, "Name": "Marion Hanscom", "State": "CHHATTISGARH", "Type": "Park", "Freq": "Leather", "Latitude": 21.618808, "Longitude": 81.695639}, {"Code": 1282, "Name": "Gary Amaya", "State": "CHHATTISGARH", "Type": "Cricket Ground", "Freq": "Leather", "Latitude": 21.728709, "Longitude": 82.568814}, {"Code": 1467, "Name": "Esther Phariss", "State": "CHHATTISGARH", "Type": "Cricket Ground", "Freq": "Leather", "Latitude": 21.695876, "Longitude": 83.2426}, {"Code": 1620, "Name": "Renee Schulz", "State": "CHHATTISGARH", "Type": "Nets", "Freq": "Leather", "Latitude": 21.251394, "Longitude": 81.629733}, {"Code": 1621, "Name": "Mario Campos", "State": "CHHATTISGARH", "Type": "Cricket Ground", "Freq": "Leather", "Latitude": 21.251394, "Longitude": 81.629733}, {"Code": 1622, "Name": "Martha Chambers", "State": "CHHATTISGARH", "Type": "Cricket Ground", "Freq": "Leather", "Latitude": 22.079625, "Longitude": 82.139142}, {"Code": 1623, "Name": "Mary Athey", "State": "CHHATTISGARH", "Type": "Cricket Ground", "Freq": "Leather", "Latitude": 22.079625, "Longitude": 82.139142}, {"Code": 1845, "Name": "Wilma Baney", "State": "CHHATTISGARH", "Type": "Gully Cricket", "Freq": "Leather", "Latitude": 21.189994, "Longitude": 81.280092}, {"Code": 1846, "Name": "Lee Pennel", "State": "CHHATTISGARH", "Type": "Nets", "Freq": "Leather", "Latitude": 21.179853, "Longitude": 81.2545}, {"Code": 1847, "Name": "Cesar Melgar", "State": "CHHATTISGARH", "Type": "Cricket Ground", "Freq": "Leather", "Latitude": 21.200022, "Longitude": 81.237472}, {"Code": 1848, "Name": "Lee Pierson", "State": "CHHATTISGARH", "Type": "Cricket Ground", "Freq": "Leather", "Latitude": 22.069453, "Longitude": 82.190639}, {"Code": 1849, "Name": "Jacqueline Bell", "State": "CHHATTISGARH", "Type": "Nets", "Freq": "Leather", "Latitude": 21.914789, "Longitude": 83.404678}, {"Code": 1850, "Name": "Anthony Mayberry", "State": "CHHATTISGARH", "Type": "Park", "Freq": "Leather", "Latitude": 21.911203, "Longitude": 83.407498}, {"Code": 1851, "Name": "David Clark", "State": "CHHATTISGARH", "Type": "Gully Cricket", "Freq": "Leather", "Latitude": 20.308614, "Longitude": 81.917614}, {"Code": 1852, "Name": "Cynthia Delgadillo", "State": "CHHATTISGARH", "Type": "Park", "Freq": "Leather", "Latitude": 21.15025, "Longitude": 82.002864}, {"Code": 1853, "Name": "Guillermo Crabill", "State": "CHHATTISGARH", "Type": "Park", "Freq": "Leather", "Latitude": 21.105793, "Longitude": 81.579948}, {"Code": 1854, "Name": "Phillip Trujillo", "State": "CHHATTISGARH", "Type": "Cricket Ground", "Freq": "Leather", "Latitude": 18.900033, "Longitude": 81.344044}, {"Code": 1855, "Name": "Michael Carrizales", "State": "CHHATTISGARH", "Type": "Cricket Ground", "Freq": "Leather", "Latitude": 18.731275, "Longitude": 80.278886}, {"Code": 1856, "Name": "Betty Koller", "State": "CHHATTISGARH", "Type": "Nets", "Freq": "Leather", "Latitude": 18.888807, "Longitude": 81.370074}, {"Code": 3163, "Name": "Mark Higgins", "State": "CHHATTISGARH", "Type": "Cricket Ground", "Freq": "Leather", "Latitude": 20.616711, "Longitude": 81.562456}, {"Code": 3164, "Name": "Hugh Marshall", "State": "CHHATTISGARH", "Type": "Cricket Ground", "Freq": "Leather", "Latitude": 21.201915, "Longitude": 81.319173}, {"Code": 3165, "Name": "Melissa Breton", "State": "CHHATTISGARH", "Type": "Cricket Ground", "Freq": "Leather", "Latitude": 22.339305, "Longitude": 82.692841}, {"Code": 3166, "Name": "Joy Hawkins", "State": "CHHATTISGARH", "Type": "Cricket Ground", "Freq": "Leather", "Latitude": 21.304368, "Longitude": 81.304163}, {"Code": 3167, "Name": "Phillip Hubbard", "State": "CHHATTISGARH", "Type": "Cricket Ground", "Freq": "Leather", "Latitude": 21.047808, "Longitude": 81.065781}, {"Code": 3168, "Name": "Roy Davenport", "State": "CHHATTISGARH", "Type": "Nets", "Freq": "Leather", "Latitude": 22.282751, "Longitude": 82.700933}, {"Code": 3169, "Name": "Harry Curry", "State": "CHHATTISGARH", "Type": "Cricket Ground", "Freq": "Leather", "Latitude": 22.397187, "Longitude": 82.707022}, {"Code": 3170, "Name": "Jean Oconnell", "State": "CHHATTISGARH", "Type": "Park", "Freq": "Leather", "Latitude": 22.382936, "Longitude": 82.716442}, {"Code": 3171, "Name": "Elizabeth Christenson", "State": "CHHATTISGARH", "Type": "Gully Cricket", "Freq": "Leather", "Latitude": 21.201958, "Longitude": 81.340825}, {"Code": 3172, "Name": "Marian Dinkel", "State": "CHHATTISGARH", "Type": "Nets", "Freq": "Leather", "Latitude": 22.424406, "Longitude": 82.73913}, {"Code": 3173, "Name": "Martha Casper", "State": "CHHATTISGARH", "Type": "Park", "Freq": "Leather", "Latitude": 22.393874, "Longitude": 82.678762}, {"Code": 3174, "Name": "Donald Val", "State": "CHHATTISGARH", "Type": "Park", "Freq": "Leather", "Latitude": 22.385857, "Longitude": 82.683508}, {"Code": 1393, "Name": "Howard Leonard", "State": "D DIU, DADRA AND NAG", "Type": "Gully Cricket", "Freq": "Leather", "Latitude": 20.411819, "Longitude": 72.833264}, {"Code": 1394, "Name": "Mark Norris", "State": "D DIU, DADRA AND NAG", "Type": "Gully Cricket", "Freq": "Leather", "Latitude": 20.290411, "Longitude": 72.994569}, {"Code": 1395, "Name": "Salvador Jordan", "State": "D DIU, DADRA AND NAG", "Type": "Gully Cricket", "Freq": "Leather", "Latitude": 20.263992, "Longitude": 72.99023}, {"Code": 1439, "Name": "Robert Mason", "State": "D DIU, DADRA AND NAG", "Type": "Nets", "Freq": "Leather", "Latitude": 20.289409, "Longitude": 72.985435}, {"Code": 2448, "Name": "Gloria Park", "State": "D DIU, DADRA AND NAG", "Type": "Park", "Freq": "Leather", "Latitude": 20.447361, "Longitude": 72.857456}, {"Code": 2449, "Name": "Evelyn Taylor", "State": "D DIU, DADRA AND NAG", "Type": "Cricket Ground", "Freq": "Leather", "Latitude": 20.400458, "Longitude": 72.878133}, {"Code": 2450, "Name": "Kathryn Goodloe", "State": "D DIU, DADRA AND NAG", "Type": "Gully Cricket", "Freq": "Leather", "Latitude": 20.426775, "Longitude": 72.847097}, {"Code": 2451, "Name": "Mario Blew", "State": "D DIU, DADRA AND NAG", "Type": "Gully Cricket", "Freq": "Leather", "Latitude": 20.40115, "Longitude": 72.892161}, {"Code": 2452, "Name": "Javier Snyder", "State": "D DIU, DADRA AND NAG", "Type": "Park", "Freq": "Leather", "Latitude": 20.384203, "Longitude": 72.883423}, {"Code": 2453, "Name": "Nick Greene", "State": "D DIU, DADRA AND NAG", "Type": "Nets", "Freq": "Leather", "Latitude": 20.126292, "Longitude": 73.062664}, {"Code": 2454, "Name": "James Sutton", "State": "D DIU, DADRA AND NAG", "Type": "Cricket Ground", "Freq": "Leather", "Latitude": 20.271932, "Longitude": 72.998411}, {"Code": 2455, "Name": "Veronica Perez", "State": "D DIU, DADRA AND NAG", "Type": "Gully Cricket", "Freq": "Leather", "Latitude": 20.242592, "Longitude": 73.014025}, {"Code": 2456, "Name": "Rebbecca Rutland", "State": "D DIU, DADRA AND NAG", "Type": "Cricket Ground", "Freq": "Leather", "Latitude": 20.310619, "Longitude": 72.960967}, {"Code": 2457, "Name": "Travis Lopez", "State": "D DIU, DADRA AND NAG", "Type": "Nets", "Freq": "Leather", "Latitude": 20.293589, "Longitude": 73.068986}, {"Code": 2458, "Name": "Juan Oneil", "State": "D DIU, DADRA AND NAG", "Type": "Park", "Freq": "Leather", "Latitude": 20.316669, "Longitude": 72.966672}, {"Code": 2459, "Name": "Joseph Delang", "State": "D DIU, DADRA AND NAG", "Type": "Park", "Freq": "Leather", "Latitude": 20.376011, "Longitude": 72.877035}, {"Code": 2460, "Name": "Kelly Culver", "State": "D DIU, DADRA AND NAG", "Type": "Park", "Freq": "Leather", "Latitude": 20.395111, "Longitude": 72.863331}, {"Code": 2461, "Name": "Jerry Stultz", "State": "D DIU, DADRA AND NAG", "Type": "Cricket Ground", "Freq": "Leather", "Latitude": 20.410861, "Longitude": 72.834194}, {"Code": 2462, "Name": "Robert Watford", "State": "D DIU, DADRA AND NAG", "Type": "Nets", "Freq": "Leather", "Latitude": 20.341709, "Longitude": 72.910953}, {"Code": 2463, "Name": "Robert Cooper", "State": "D DIU, DADRA AND NAG", "Type": "Nets", "Freq": "Leather", "Latitude": 20.298797, "Longitude": 72.976956}, {"Code": 2464, "Name": "Irma Alexander", "State": "D DIU, DADRA AND NAG", "Type": "Nets", "Freq": "Leather", "Latitude": 20.312231, "Longitude": 72.953768}, {"Code": 2465, "Name": "Edna Fernandez", "State": "D DIU, DADRA AND NAG", "Type": "Gully Cricket", "Freq": "Leather", "Latitude": 20.272097, "Longitude": 72.985656}, {"Code": 2466, "Name": "Tommy Blodgett", "State": "D DIU, DADRA AND NAG", "Type": "Cricket Ground", "Freq": "Leather", "Latitude": 20.363842, "Longitude": 72.883264}, {"Code": 30040, "Name": "Monte Moh", "State": "D DIU, DADRA AND NAG", "Type": "Cricket Ground", "Freq": "Leather", "Latitude": 20.374452, "Longitude": 72.87907}, {"Code": 1120, "Name": "Anna Kelsheimer", "State": "DELHI", "Type": "Cricket Ground", "Freq": "Leather", "Latitude": 28.85018, "Longitude": 77.210184}, {"Code": 1121, "Name": "Marian Weaver", "State": "DELHI", "Type": "Park", "Freq": "Leather", "Latitude": 28.598582, "Longitude": 77.263308}, {"Code": 1375, "Name": "Christopher Watson", "State": "DELHI", "Type": "Cricket Ground", "Freq": "Leather", "Latitude": 28.566967, "Longitude": 77.294665}, {"Code": 1377, "Name": "Jack Martinez", "State": "DELHI", "Type": "Park", "Freq": "Leather", "Latitude": 28.709408, "Longitude": 77.227814}, {"Code": 1479, "Name": "Donald Capps", "State": "DELHI", "Type": "Gully Cricket", "Freq": "Leather", "Latitude": 28.72121, "Longitude": 77.139675}, {"Code": 1501, "Name": "Joseph Romeo", "State": "DELHI", "Type": "Gully Cricket", "Freq": "Leather", "Latitude": 28.725579, "Longitude": 77.209339}, {"Code": 1502, "Name": "Ann Nash", "State": "DELHI", "Type": "Cricket Ground", "Freq": "Leather", "Latitude": 28.639369, "Longitude": 77.220517}, {"Code": 1503, "Name": "Sheryl Francis", "State": "DELHI", "Type": "Cricket Ground", "Freq": "Leather", "Latitude": 28.730293, "Longitude": 77.272327}, {"Code": 1504, "Name": "Armando Clark", "State": "DELHI", "Type": "Park", "Freq": "Leather", "Latitude": 28.620444, "Longitude": 77.251472}, {"Code": 1505, "Name": "Rita Mccall", "State": "DELHI", "Type": "Nets", "Freq": "Leather", "Latitude": 28.584011, "Longitude": 77.265425}, {"Code": 1506, "Name": "Brian Knaff", "State": "DELHI", "Type": "Cricket Ground", "Freq": "Leather", "Latitude": 28.671042, "Longitude": 77.269639}, {"Code": 1812, "Name": "Garrett Lopez", "State": "DELHI", "Type": "Gully Cricket", "Freq": "Leather", "Latitude": 28.533295, "Longitude": 77.330724}, {"Code": 1857, "Name": "William Weeks", "State": "DELHI", "Type": "Park", "Freq": "Leather", "Latitude": 28.571258, "Longitude": 77.2667}, {"Code": 1858, "Name": "Leslie Gressler", "State": "DELHI", "Type": "Gully Cricket", "Freq": "Leather", "Latitude": 28.536089, "Longitude": 77.293417}, {"Code": 2057, "Name": "Susan Donovan", "State": "DELHI", "Type": "Gully Cricket", "Freq": "Leather", "Latitude": 28.546369, "Longitude": 77.312597}, {"Code": 3030, "Name": "Jon Love", "State": "DELHI", "Type": "Nets", "Freq": "Leather", "Latitude": 28.615194, "Longitude": 77.292867}, {"Code": 3031, "Name": "Horace Johnson", "State": "DELHI", "Type": "Park", "Freq": "Leather", "Latitude": 28.741669, "Longitude": 77.171997}, {"Code": 3032, "Name": "Sharon Rosado", "State": "DELHI", "Type": "Gully Cricket", "Freq": "Leather", "Latitude": 28.466008, "Longitude": 76.893685}, {"Code": 3041, "Name": "Sean Sawyer", "State": "DELHI", "Type": "Park", "Freq": "Leather", "Latitude": 28.717325, "Longitude": 77.232284}, {"Code": 3042, "Name": "Donna Gayer", "State": "DELHI", "Type": "Nets", "Freq": "Leather", "Latitude": 28.709748, "Longitude": 77.246467}, {"Code": 3043, "Name": "James Usher", "State": "DELHI", "Type": "Gully Cricket", "Freq": "Leather", "Latitude": 28.694234, "Longitude": 77.226118}, {"Code": 3044, "Name": "Scot Hill", "State": "DELHI", "Type": "Nets", "Freq": "Leather", "Latitude": 28.671142, "Longitude": 77.049299}, {"Code": 3045, "Name": "Eunice Washington", "State": "DELHI", "Type": "Cricket Ground", "Freq": "Leather", "Latitude": 28.721325, "Longitude": 77.140314}, {"Code": 3046, "Name": "Verla Gould", "State": "DELHI", "Type": "Cricket Ground", "Freq": "Leather", "Latitude": 28.600367, "Longitude": 77.061682}, {"Code": 3476, "Name": "Patricia Boese", "State": "DELHI", "Type": "Park", "Freq": "Leather", "Latitude": 28.51595, "Longitude": 77.171442}, {"Code": 3477, "Name": "Shirley Johnson", "State": "DELHI", "Type": "Gully Cricket", "Freq": "Leather", "Latitude": 28.797075, "Longitude": 77.133117}, {"Code": 3479, "Name": "John Heinzen", "State": "DELHI", "Type": "Cricket Ground", "Freq": "Leather", "Latitude": 28.556339, "Longitude": 77.206494}, {"Code": 3480, "Name": "Thomas Langdon", "State": "DELHI", "Type": "Park", "Freq": "Leather", "Latitude": 28.805331, "Longitude": 77.046247}, {"Code": 3483, "Name": "Ruth Davis", "State": "DELHI", "Type": "Park", "Freq": "Leather", "Latitude": 28.755, "Longitude": 77.199}, {"Code": 3485, "Name": "Christina Lee", "State": "DELHI", "Type": "Cricket Ground", "Freq": "Leather", "Latitude": 28.572486, "Longitude": 77.232919}, {"Code": 3488, "Name": "German Armstrong", "State": "DELHI", "Type": "Nets", "Freq": "Leather", "Latitude": 28.684654, "Longitude": 77.314976}, {"Code": 3489, "Name": "Dina Galloway", "State": "DELHI", "Type": "Cricket Ground", "Freq": "Leather", "Latitude": 28.573669, "Longitude": 77.055899}, {"Code": 3490, "Name": "Ralph Boswell", "State": "DELHI", "Type": "Park", "Freq": "Leather", "Latitude": 28.457589, "Longitude": 77.178719}, {"Code": 3492, "Name": "Robert Davis", "State": "DELHI", "Type": "Nets", "Freq": "Leather", "Latitude": 28.629953, "Longitude": 77.320258}, {"Code": 3493, "Name": "Adriana Douglas", "State": "DELHI", "Type": "Cricket Ground", "Freq": "Leather", "Latitude": 28.666309, "Longitude": 77.273879}, {"Code": 3494, "Name": "Joseph Winterholler", "State": "DELHI", "Type": "Gully Cricket", "Freq": "Leather", "Latitude": 28.722494, "Longitude": 77.144697}, {"Code": 3496, "Name": "Sonya Murillo", "State": "DELHI", "Type": "Nets", "Freq": "Leather", "Latitude": 28.668728, "Longitude": 77.230422}, {"Code": 3498, "Name": "Megan Pope", "State": "DELHI", "Type": "Park", "Freq": "Leather", "Latitude": 28.54985, "Longitude": 77.260786}, {"Code": 3500, "Name": "Gary Carrasquillo", "State": "DELHI", "Type": "Park", "Freq": "Leather", "Latitude": 28.680544, "Longitude": 77.203628}, {"Code": 3503, "Name": "Dorothy Tuliau", "State": "DELHI", "Type": "Gully Cricket", "Freq": "Leather", "Latitude": 28.653008, "Longitude": 77.192353}, {"Code": 3514, "Name": "Sara Nelson", "State": "DELHI", "Type": "Park", "Freq": "Leather", "Latitude": 28.611486, "Longitude": 77.049103}, {"Code": 3515, "Name": "Wade Davidson", "State": "DELHI", "Type": "Nets", "Freq": "Leather", "Latitude": 28.627219, "Longitude": 77.12405}, {"Code": 3516, "Name": "Barry Fleischman", "State": "DELHI", "Type": "Gully Cricket", "Freq": "Leather", "Latitude": 28.614625, "Longitude": 77.312158}, {"Code": 3517, "Name": "Marie Beech", "State": "DELHI", "Type": "Gully Cricket", "Freq": "Leather", "Latitude": 28.605978, "Longitude": 76.991206}, {"Code": 3518, "Name": "Priscilla Anderson", "State": "DELHI", "Type": "Cricket Ground", "Freq": "Leather", "Latitude": 28.632142, "Longitude": 77.138853}, {"Code": 3520, "Name": "Leona Harris", "State": "DELHI", "Type": "Park", "Freq": "Leather", "Latitude": 28.567406, "Longitude": 77.292078}, {"Code": 3523, "Name": "Edgar Kio", "State": "DELHI", "Type": "Cricket Ground", "Freq": "Leather", "Latitude": 28.655714, "Longitude": 77.295122}, {"Code": 3524, "Name": "Jerry Thomas", "State": "DELHI", "Type": "Cricket Ground", "Freq": "Leather", "Latitude": 28.665694, "Longitude": 77.093931}, {"Code": 3525, "Name": "Lawrence Trombley", "State": "DELHI", "Type": "Cricket Ground", "Freq": "Leather", "Latitude": 28.650511, "Longitude": 77.169181}, {"Code": 3526, "Name": "Nelson Washington", "State": "DELHI", "Type": "Gully Cricket", "Freq": "Leather", "Latitude": 28.61225, "Longitude": 77.285689}, {"Code": 3527, "Name": "Sally Lemay", "State": "DELHI", "Type": "Park", "Freq": "Leather", "Latitude": 28.639439, "Longitude": 77.310961}, {"Code": 3528, "Name": "Melvin Banas", "State": "DELHI", "Type": "Cricket Ground", "Freq": "Leather", "Latitude": 28.679675, "Longitude": 77.092711}, {"Code": 3529, "Name": "Lucien Crutchfield", "State": "DELHI", "Type": "Gully Cricket", "Freq": "Leather", "Latitude": 28.579181, "Longitude": 77.201353}, {"Code": 3530, "Name": "Phyllis Rowden", "State": "DELHI", "Type": "Park", "Freq": "Leather", "Latitude": 28.652997, "Longitude": 77.299056}, {"Code": 3531, "Name": "Haley Vacheresse", "State": "DELHI", "Type": "Park", "Freq": "Leather", "Latitude": 28.571769, "Longitude": 77.165053}, {"Code": 3532, "Name": "Mark Doverspike", "State": "DELHI", "Type": "Cricket Ground", "Freq": "Leather", "Latitude": 28.639864, "Longitude": 77.180092}, {"Code": 3533, "Name": "Jason Tisdale", "State": "DELHI", "Type": "Nets", "Freq": "Leather", "Latitude": 28.677442, "Longitude": 77.217708}, {"Code": 3534, "Name": "Mary Whitten", "State": "DELHI", "Type": "Nets", "Freq": "Leather", "Latitude": 28.614361, "Longitude": 77.199622}, {"Code": 3535, "Name": "Antonio Lewis", "State": "DELHI", "Type": "Park", "Freq": "Leather", "Latitude": 28.736069, "Longitude": 77.091128}, {"Code": 3536, "Name": "Maryann Prince", "State": "DELHI", "Type": "Gully Cricket", "Freq": "Leather", "Latitude": 28.524594, "Longitude": 77.206678}, {"Code": 3537, "Name": "Sylvia Basile", "State": "DELHI", "Type": "Park", "Freq": "Leather", "Latitude": 28.681614, "Longitude": 77.270975}, {"Code": 3538, "Name": "Hollis Marable", "State": "DELHI", "Type": "Park", "Freq": "Leather", "Latitude": 28.843719, "Longitude": 77.089375}, {"Code": 3539, "Name": "Roy Macy", "State": "DELHI", "Type": "Gully Cricket", "Freq": "Leather", "Latitude": 28.843025, "Longitude": 77.12602}, {"Code": 3540, "Name": "Ramona Ramsey", "State": "DELHI", "Type": "Nets", "Freq": "Leather", "Latitude": 28.698114, "Longitude": 77.070828}, {"Code": 3541, "Name": "Cecilia Dobos", "State": "DELHI", "Type": "Nets", "Freq": "Leather", "Latitude": 28.682331, "Longitude": 76.967181}, {"Code": 3542, "Name": "Jason Grimsley", "State": "DELHI", "Type": "Park", "Freq": "Leather", "Latitude": 28.638739, "Longitude": 77.094114}, {"Code": 3543, "Name": "Michael Villarreal", "State": "DELHI", "Type": "Gully Cricket", "Freq": "Leather", "Latitude": 28.604678, "Longitude": 77.306886}, {"Code": 3544, "Name": "John Gieger", "State": "DELHI", "Type": "Gully Cricket", "Freq": "Leather", "Latitude": 28.567089, "Longitude": 76.910736}, {"Code": 3545, "Name": "Marcie Schumpert", "State": "DELHI", "Type": "Nets", "Freq": "Leather", "Latitude": 28.527303, "Longitude": 77.151553}, {"Code": 3546, "Name": "Brad Shedd", "State": "DELHI", "Type": "Park", "Freq": "Leather", "Latitude": 28.560258, "Longitude": 77.156006}, {"Code": 10006, "Name": "David Chambers", "State": "DELHI", "Type": "Cricket Ground", "Freq": "Leather", "Latitude": 28.85017, "Longitude": 77.210174}, {"Code": 10007, "Name": "Sharon Mayo", "State": "DELHI", "Type": "Gully Cricket", "Freq": "Leather", "Latitude": 28.601463, "Longitude": 77.261884}, {"Code": 10008, "Name": "James Bertram", "State": "DELHI", "Type": "Nets", "Freq": "Leather", "Latitude": 28.560276, "Longitude": 77.299347}, {"Code": 10009, "Name": "Roberta Omalley", "State": "DELHI", "Type": "Gully Cricket", "Freq": "Leather", "Latitude": 28.534114, "Longitude": 77.327671}, {"Code": 30026, "Name": "Peter Deherrera", "State": "DELHI", "Type": "Gully Cricket", "Freq": "Leather", "Latitude": 28.862454, "Longitude": 77.207282}, {"Code": 1399, "Name": "Neil Mckinley", "State": "GOA", "Type": "Cricket Ground", "Freq": "Leather", "Latitude": 15.2715, "Longitude": 74.08885}, {"Code": 1400, "Name": "Branden Cramer", "State": "GOA", "Type": "Park", "Freq": "Leather", "Latitude": 15.499719, "Longitude": 73.834744}, {"Code": 1475, "Name": "Joe Bui", "State": "GOA", "Type": "Gully Cricket", "Freq": "Leather", "Latitude": 15.281044, "Longitude": 74.071108}, {"Code": 1476, "Name": "Pearl Parker", "State": "GOA", "Type": "Park", "Freq": "Leather", "Latitude": 15.550258, "Longitude": 73.949164}, {"Code": 1543, "Name": "Karen Logan", "State": "GOA", "Type": "Cricket Ground", "Freq": "Leather", "Latitude": 15.74629, "Longitude": 73.899494}, {"Code": 1544, "Name": "Erin Munoz", "State": "GOA", "Type": "Nets", "Freq": "Leather", "Latitude": 15.561455, "Longitude": 73.990584}, {"Code": 1545, "Name": "Ofelia Hutson", "State": "GOA", "Type": "Cricket Ground", "Freq": "Leather", "Latitude": 15.536364, "Longitude": 74.148515}, {"Code": 1546, "Name": "Carol Jackson", "State": "GOA", "Type": "Park", "Freq": "Leather", "Latitude": 15.466425, "Longitude": 74.038825}, {"Code": 1547, "Name": "Jeffrey Croft", "State": "GOA", "Type": "Cricket Ground", "Freq": "Leather", "Latitude": 14.98929, "Longitude": 74.04736}, {"Code": 1548, "Name": "Ken Guerrero", "State": "GOA", "Type": "Cricket Ground", "Freq": "Leather", "Latitude": 15.615148, "Longitude": 73.900658}, {"Code": 1549, "Name": "Guy Martinez", "State": "GOA", "Type": "Cricket Ground", "Freq": "Leather", "Latitude": 15.212725, "Longitude": 74.178936}, {"Code": 2265, "Name": "Randall Carrillo", "State": "GOA", "Type": "Nets", "Freq": "Leather", "Latitude": 15.182391, "Longitude": 73.990575}, {"Code": 2266, "Name": "Charles Singer", "State": "GOA", "Type": "Park", "Freq": "Leather", "Latitude": 15.16806, "Longitude": 74.010058}, {"Code": 2267, "Name": "Adam Hernandez", "State": "GOA", "Type": "Nets", "Freq": "Leather", "Latitude": 15.354489, "Longitude": 73.883148}, {"Code": 2268, "Name": "Luella Alvarez", "State": "GOA", "Type": "Gully Cricket", "Freq": "Leather", "Latitude": 15.502818, "Longitude": 73.949118}, {"Code": 2269, "Name": "Rosa Hudson", "State": "GOA", "Type": "Gully Cricket", "Freq": "Leather", "Latitude": 15.575408, "Longitude": 73.939978}, {"Code": 2270, "Name": "Clyde Thomas", "State": "GOA", "Type": "Gully Cricket", "Freq": "Leather", "Latitude": 15.410589, "Longitude": 74.054325}, {"Code": 2271, "Name": "Andre Montgomery", "State": "GOA", "Type": "Nets", "Freq": "Leather", "Latitude": 15.188883, "Longitude": 73.995911}, {"Code": 2272, "Name": "Robert Militello", "State": "GOA", "Type": "Gully Cricket", "Freq": "Leather", "Latitude": 15.232069, "Longitude": 74.149461}, {"Code": 2273, "Name": "Kevin Bilbao", "State": "GOA", "Type": "Nets", "Freq": "Leather", "Latitude": 15.156136, "Longitude": 73.95205}, {"Code": 2274, "Name": "Brenda Rodriguez", "State": "GOA", "Type": "Gully Cricket", "Freq": "Leather", "Latitude": 15.608275, "Longitude": 73.836869}, {"Code": 2275, "Name": "Mark Miller", "State": "GOA", "Type": "Nets", "Freq": "Leather", "Latitude": 15.700331, "Longitude": 73.904347}, {"Code": 2276, "Name": "Elva Bigbee", "State": "GOA", "Type": "Gully Cricket", "Freq": "Leather", "Latitude": 15.590815, "Longitude": 73.952907},